{"type" : "FeatureCollection", "features" : [{"type":"Feature","geometry":{"type":"Point","coordinates":[106.57037,29.55625]},"properties":{"id":21101,"klass":"Station","name":"Jiaochangkou","opening":2004,"buildstart":0,"closure":999999,"lines":[{"line":"Line 2","line_url_name":"2318-line-2","system":"Chongqing Rail Transit"}]}}, {"type":"Feature","geometry":{"type":"Point","coordinates":[106.57976,29.56276]},"properties":{"id":21050,"klass":"Station","name":"Xiaoshizi","opening":2011,"buildstart":0,"closure":999999,"lines":[{"line":"Line 1","line_url_name":"2311-line-1","system":"Chongqing Rail Transit"}]}}, {"type":"Feature","geometry":{"type":"Point","coordinates":[106.56933,29.55596]},"properties":{"id":21051,"klass":"Station","name":"Jiaochangkou","opening":2011,"buildstart":0,"closure":999999,"lines":[{"line":"Line 1","line_url_name":"2311-line-1","system":"Chongqing Rail Transit"}]}}, {"type":"Feature","geometry":{"type":"Point","coordinates":[106.55869,29.55804]},"properties":{"id":21052,"klass":"Station","name":"Qixinggang","opening":2011,"buildstart":0,"closure":999999,"lines":[{"line":"Line 1","line_url_name":"2311-line-1","system":"Chongqing Rail Transit"}]}}, {"type":"Feature","geometry":{"type":"Point","coordinates":[106.54556,29.55539]},"properties":{"id":21053,"klass":"Station","name":"Lianglukou","opening":2011,"buildstart":0,"closure":999999,"lines":[{"line":"Line 1","line_url_name":"2311-line-1","system":"Chongqing Rail Transit"}]}}, {"type":"Feature","geometry":{"type":"Point","coordinates":[106.53001,29.55072]},"properties":{"id":21054,"klass":"Station","name":"Eling","opening":2011,"buildstart":0,"closure":999999,"lines":[{"line":"Line 1","line_url_name":"2311-line-1","system":"Chongqing Rail Transit"}]}}, {"type":"Feature","geometry":{"type":"Point","coordinates":[106.50617,29.54184]},"properties":{"id":21065,"klass":"Station","name":"Shiyoulu","opening":2011,"buildstart":0,"closure":999999,"lines":[{"line":"Line 1","line_url_name":"2311-line-1","system":"Chongqing Rail Transit"}]}}, {"type":"Feature","geometry":{"type":"Point","coordinates":[106.46531,29.53887]},"properties":{"id":21068,"klass":"Station","name":"Gaomiaocun","opening":2011,"buildstart":0,"closure":999999,"lines":[{"line":"Line 1","line_url_name":"2311-line-1","system":"Chongqing Rail Transit"}]}}, {"type":"Feature","geometry":{"type":"Point","coordinates":[106.46456,29.54792]},"properties":{"id":21069,"klass":"Station","name":"Majiayan","opening":2011,"buildstart":0,"closure":999999,"lines":[{"line":"Line 1","line_url_name":"2311-line-1","system":"Chongqing Rail Transit"}]}}, {"type":"Feature","geometry":{"type":"Point","coordinates":[106.46464,29.55612]},"properties":{"id":21070,"klass":"Station","name":"Xiaolongkan","opening":2011,"buildstart":0,"closure":999999,"lines":[{"line":"Line 1","line_url_name":"2311-line-1","system":"Chongqing Rail Transit"}]}}, {"type":"Feature","geometry":{"type":"Point","coordinates":[106.45637,29.55919]},"properties":{"id":21071,"klass":"Station","name":"Shapingba","opening":2011,"buildstart":0,"closure":999999,"lines":[{"line":"Line 1","line_url_name":"2311-line-1","system":"Chongqing Rail Transit"}]}}, {"type":"Feature","geometry":{"type":"Point","coordinates":[106.44568,29.56492]},"properties":{"id":21072,"klass":"Station","name":"Yanggongqiao","opening":2011,"buildstart":0,"closure":999999,"lines":[{"line":"Line 1","line_url_name":"2311-line-1","system":"Chongqing Rail Transit"}]}}, {"type":"Feature","geometry":{"type":"Point","coordinates":[106.44144,29.57031]},"properties":{"id":21073,"klass":"Station","name":"Lieshimu","opening":2013,"buildstart":0,"closure":999999,"lines":[{"line":"Line 1","line_url_name":"2311-line-1","system":"Chongqing Rail Transit"}]}}, {"type":"Feature","geometry":{"type":"Point","coordinates":[106.44255,29.5791]},"properties":{"id":21074,"klass":"Station","name":"Ciqikou","opening":2012,"buildstart":0,"closure":999999,"lines":[{"line":"Line 1","line_url_name":"2311-line-1","system":"Chongqing Rail Transit"}]}}, {"type":"Feature","geometry":{"type":"Point","coordinates":[106.44034,29.59208]},"properties":{"id":21075,"klass":"Station","name":"Shijingpo","opening":2014,"buildstart":0,"closure":999999,"lines":[{"line":"Line 1","line_url_name":"2311-line-1","system":"Chongqing Rail Transit"}]}}, {"type":"Feature","geometry":{"type":"Point","coordinates":[106.44043,29.61191]},"properties":{"id":21076,"klass":"Station","name":"Shuangbei","opening":2012,"buildstart":0,"closure":999999,"lines":[{"line":"Line 1","line_url_name":"2311-line-1","system":"Chongqing Rail Transit"}]}}, {"type":"Feature","geometry":{"type":"Point","coordinates":[106.37711,29.61283]},"properties":{"id":21077,"klass":"Station","name":"Laijiaqiao","opening":2012,"buildstart":0,"closure":999999,"lines":[{"line":"Line 1","line_url_name":"2311-line-1","system":"Chongqing Rail Transit"}]}}, {"type":"Feature","geometry":{"type":"Point","coordinates":[106.36034,29.6122]},"properties":{"id":21078,"klass":"Station","name":"Weidianyuan","opening":2013,"buildstart":0,"closure":999999,"lines":[{"line":"Line 1","line_url_name":"2311-line-1","system":"Chongqing Rail Transit"}]}}, {"type":"Feature","geometry":{"type":"Point","coordinates":[106.32454,29.60993]},"properties":{"id":21079,"klass":"Station","name":"Chenjiaqiao","opening":2012,"buildstart":0,"closure":999999,"lines":[{"line":"Line 1","line_url_name":"2311-line-1","system":"Chongqing Rail Transit"}]}}, {"type":"Feature","geometry":{"type":"Point","coordinates":[106.30343,29.61006]},"properties":{"id":21080,"klass":"Station","name":"Daxuecheng","opening":2012,"buildstart":0,"closure":999999,"lines":[{"line":"Line 1","line_url_name":"2311-line-1","system":"Chongqing Rail Transit"}]}}, {"type":"Feature","geometry":{"type":"Point","coordinates":[106.28802,29.61003]},"properties":{"id":21081,"klass":"Station","name":"Jiandingpo","opening":2014,"buildstart":0,"closure":999999,"lines":[{"line":"Line 1","line_url_name":"2311-line-1","system":"Chongqing Rail Transit"}]}}, {"type":"Feature","geometry":{"type":"Point","coordinates":[106.22735,29.61554]},"properties":{"id":21082,"klass":"Station","name":"Bishan","opening":2019,"buildstart":0,"closure":999999,"lines":[{"line":"Line 1","line_url_name":"2311-line-1","system":"Chongqing Rail Transit"}]}}, {"type":"Feature","geometry":{"type":"Point","coordinates":[106.5146,29.54349]},"properties":{"id":21064,"klass":"Station","name":"Daping","opening":2011,"buildstart":0,"closure":999999,"lines":[{"line":"Line 1","line_url_name":"2311-line-1","system":"Chongqing Rail Transit"}]}}, {"type":"Feature","geometry":{"type":"Point","coordinates":[106.48114,29.53542]},"properties":{"id":21067,"klass":"Station","name":"Shiqiaopu","opening":2011,"buildstart":0,"closure":999999,"lines":[{"line":"Line 1","line_url_name":"2311-line-1","system":"Chongqing Rail Transit"},{"line":"Line 5","line_url_name":"2321-line-5","system":"Chongqing Rail Transit"}]}}, {"type":"Feature","geometry":{"type":"Point","coordinates":[106.56951,29.56184]},"properties":{"id":21102,"klass":"Station","name":"Linjiangmen","opening":2004,"buildstart":0,"closure":999999,"lines":[{"line":"Line 2","line_url_name":"2318-line-2","system":"Chongqing Rail Transit"}]}}, {"type":"Feature","geometry":{"type":"Point","coordinates":[106.56156,29.56605]},"properties":{"id":21103,"klass":"Station","name":"Huanghuayuan","opening":2004,"buildstart":0,"closure":999999,"lines":[{"line":"Line 2","line_url_name":"2318-line-2","system":"Chongqing Rail Transit"}]}}, {"type":"Feature","geometry":{"type":"Point","coordinates":[106.55498,29.56902]},"properties":{"id":21104,"klass":"Station","name":"Daxigou","opening":2004,"buildstart":0,"closure":999999,"lines":[{"line":"Line 2","line_url_name":"2318-line-2","system":"Chongqing Rail Transit"}]}}, {"type":"Feature","geometry":{"type":"Point","coordinates":[106.5468,29.56933]},"properties":{"id":21105,"klass":"Station","name":"Zengjiayan","opening":2004,"buildstart":0,"closure":999999,"lines":[{"line":"Line 2","line_url_name":"2318-line-2","system":"Chongqing Rail Transit"}]}}, {"type":"Feature","geometry":{"type":"Point","coordinates":[106.53885,29.56339]},"properties":{"id":21106,"klass":"Station","name":"Niujiaotuo","opening":2004,"buildstart":0,"closure":999999,"lines":[{"line":"Line 2","line_url_name":"2318-line-2","system":"Chongqing Rail Transit"}]}}, {"type":"Feature","geometry":{"type":"Point","coordinates":[106.53403,29.55575]},"properties":{"id":21107,"klass":"Station","name":"Liziba","opening":2004,"buildstart":0,"closure":999999,"lines":[{"line":"Line 2","line_url_name":"2318-line-2","system":"Chongqing Rail Transit"}]}}, {"type":"Feature","geometry":{"type":"Point","coordinates":[106.52759,29.55201]},"properties":{"id":21108,"klass":"Station","name":"Fotuguan","opening":2004,"buildstart":0,"closure":999999,"lines":[{"line":"Line 2","line_url_name":"2318-line-2","system":"Chongqing Rail Transit"}]}}, {"type":"Feature","geometry":{"type":"Point","coordinates":[106.51495,29.54416]},"properties":{"id":21109,"klass":"Station","name":"Daping","opening":2004,"buildstart":0,"closure":999999,"lines":[{"line":"Line 2","line_url_name":"2318-line-2","system":"Chongqing Rail Transit"}]}}, {"type":"Feature","geometry":{"type":"Point","coordinates":[106.50993,29.53175]},"properties":{"id":21110,"klass":"Station","name":"Yuanjiagang","opening":2004,"buildstart":0,"closure":999999,"lines":[{"line":"Line 2","line_url_name":"2318-line-2","system":"Chongqing Rail Transit"}]}}, {"type":"Feature","geometry":{"type":"Point","coordinates":[106.51383,29.52183]},"properties":{"id":21111,"klass":"Station","name":"Xiejiawan","opening":2004,"buildstart":0,"closure":999999,"lines":[{"line":"Line 2","line_url_name":"2318-line-2","system":"Chongqing Rail Transit"}]}}, {"type":"Feature","geometry":{"type":"Point","coordinates":[106.51,29.51061]},"properties":{"id":21112,"klass":"Station","name":"Yangjiaping","opening":2004,"buildstart":0,"closure":999999,"lines":[{"line":"Line 2","line_url_name":"2318-line-2","system":"Chongqing Rail Transit"}]}}, {"type":"Feature","geometry":{"type":"Point","coordinates":[106.50535,29.50279]},"properties":{"id":21113,"klass":"Station","name":"Dingwuyuan (Zoo)","opening":2004,"buildstart":0,"closure":999999,"lines":[{"line":"Line 2","line_url_name":"2318-line-2","system":"Chongqing Rail Transit"}]}}, {"type":"Feature","geometry":{"type":"Point","coordinates":[106.49529,29.50231]},"properties":{"id":21114,"klass":"Station","name":"Dayancun","opening":2006,"buildstart":0,"closure":999999,"lines":[{"line":"Line 2","line_url_name":"2318-line-2","system":"Chongqing Rail Transit"}]}}, {"type":"Feature","geometry":{"type":"Point","coordinates":[106.48472,29.49875]},"properties":{"id":21115,"klass":"Station","name":"Mawangchang","opening":2006,"buildstart":0,"closure":999999,"lines":[{"line":"Line 2","line_url_name":"2318-line-2","system":"Chongqing Rail Transit"}]}}, {"type":"Feature","geometry":{"type":"Point","coordinates":[106.48144,29.49147]},"properties":{"id":21116,"klass":"Station","name":"Ping'an","opening":2006,"buildstart":0,"closure":999999,"lines":[{"line":"Line 2","line_url_name":"2318-line-2","system":"Chongqing Rail Transit"}]}}, {"type":"Feature","geometry":{"type":"Point","coordinates":[106.47429,29.48455]},"properties":{"id":21117,"klass":"Station","name":"Dadukou","opening":2006,"buildstart":0,"closure":999999,"lines":[{"line":"Line 2","line_url_name":"2318-line-2","system":"Chongqing Rail Transit"}]}}, {"type":"Feature","geometry":{"type":"Point","coordinates":[106.47245,29.47477]},"properties":{"id":21118,"klass":"Station","name":"Xinshancun","opening":2006,"buildstart":0,"closure":999999,"lines":[{"line":"Line 2","line_url_name":"2318-line-2","system":"Chongqing Rail Transit"}]}}, {"type":"Feature","geometry":{"type":"Point","coordinates":[106.47081,29.45243]},"properties":{"id":21120,"klass":"Station","name":"Jianqiao","opening":2014,"buildstart":0,"closure":999999,"lines":[{"line":"Line 2","line_url_name":"2318-line-2","system":"Chongqing Rail Transit"}]}}, {"type":"Feature","geometry":{"type":"Point","coordinates":[106.47157,29.44067]},"properties":{"id":21121,"klass":"Station","name":"Jinjiawan","opening":2014,"buildstart":0,"closure":999999,"lines":[{"line":"Line 2","line_url_name":"2318-line-2","system":"Chongqing Rail Transit"}]}}, {"type":"Feature","geometry":{"type":"Point","coordinates":[106.47896,29.43012]},"properties":{"id":21122,"klass":"Station","name":"Liujiaba","opening":2014,"buildstart":0,"closure":999999,"lines":[{"line":"Line 2","line_url_name":"2318-line-2","system":"Chongqing Rail Transit"}]}}, {"type":"Feature","geometry":{"type":"Point","coordinates":[106.48809,29.41738]},"properties":{"id":21123,"klass":"Station","name":"Baijusi","opening":2014,"buildstart":0,"closure":999999,"lines":[{"line":"Line 2","line_url_name":"2318-line-2","system":"Chongqing Rail Transit"}]}}, {"type":"Feature","geometry":{"type":"Point","coordinates":[106.50184,29.37886]},"properties":{"id":21125,"klass":"Station","name":"Yudong","opening":2014,"buildstart":0,"closure":999999,"lines":[{"line":"Line 2","line_url_name":"2318-line-2","system":"Chongqing Rail Transit"}]}}, {"type":"Feature","geometry":{"type":"Point","coordinates":[106.5368,29.60208]},"properties":{"id":21150,"klass":"Station","name":"Tangjiayuanzi","opening":2011,"buildstart":0,"closure":999999,"lines":[{"line":"Line 3","line_url_name":"2319-line-3","system":"Chongqing Rail Transit"}]}}, {"type":"Feature","geometry":{"type":"Point","coordinates":[106.50186,29.37884]},"properties":{"id":21126,"klass":"Station","name":"Yudong","opening":2011,"buildstart":2007,"closure":999999,"lines":[{"line":"Line 3","line_url_name":"2319-line-3","system":"Chongqing Rail Transit"}]}}, {"type":"Feature","geometry":{"type":"Point","coordinates":[106.54663,29.43512]},"properties":{"id":21131,"klass":"Station","name":"Huaxi","opening":2013,"buildstart":0,"closure":999999,"lines":[{"line":"Line 3","line_url_name":"2319-line-3","system":"Chongqing Rail Transit"}]}}, {"type":"Feature","geometry":{"type":"Point","coordinates":[106.55087,29.4515]},"properties":{"id":21132,"klass":"Station","name":"Chalukou","opening":2013,"buildstart":0,"closure":999999,"lines":[{"line":"Line 3","line_url_name":"2319-line-3","system":"Chongqing Rail Transit"}]}}, {"type":"Feature","geometry":{"type":"Point","coordinates":[106.56215,29.48104]},"properties":{"id":21135,"klass":"Station","name":"Bagongli","opening":2012,"buildstart":0,"closure":999999,"lines":[{"line":"Line 3","line_url_name":"2319-line-3","system":"Chongqing Rail Transit"}]}}, {"type":"Feature","geometry":{"type":"Point","coordinates":[106.57017,29.51021]},"properties":{"id":21138,"klass":"Station","name":"Wugongli (Chongqing Technology and Business University)","opening":2013,"buildstart":0,"closure":999999,"lines":[{"line":"Line 3","line_url_name":"2319-line-3","system":"Chongqing Rail Transit"}]}}, {"type":"Feature","geometry":{"type":"Point","coordinates":[106.57239,29.51951]},"properties":{"id":21139,"klass":"Station","name":"Sigongli","opening":2011,"buildstart":0,"closure":999999,"lines":[{"line":"Line 3","line_url_name":"2319-line-3","system":"Chongqing Rail Transit"}]}}, {"type":"Feature","geometry":{"type":"Point","coordinates":[106.56639,29.52876]},"properties":{"id":21140,"klass":"Station","name":"Nanping","opening":2011,"buildstart":0,"closure":999999,"lines":[{"line":"Line 3","line_url_name":"2319-line-3","system":"Chongqing Rail Transit"}]}}, {"type":"Feature","geometry":{"type":"Point","coordinates":[106.55883,29.53451]},"properties":{"id":21141,"klass":"Station","name":"Gongmao","opening":2012,"buildstart":0,"closure":999999,"lines":[{"line":"Line 3","line_url_name":"2319-line-3","system":"Chongqing Rail Transit"}]}}, {"type":"Feature","geometry":{"type":"Point","coordinates":[106.5477,29.53993]},"properties":{"id":21142,"klass":"Station","name":"Tongyuanju","opening":2012,"buildstart":0,"closure":999999,"lines":[{"line":"Line 3","line_url_name":"2319-line-3","system":"Chongqing Rail Transit"}]}}, {"type":"Feature","geometry":{"type":"Point","coordinates":[106.54584,29.55515]},"properties":{"id":21143,"klass":"Station","name":"Lianglukou","opening":2012,"buildstart":0,"closure":999999,"lines":[{"line":"Line 3","line_url_name":"2319-line-3","system":"Chongqing Rail Transit"}]}}, {"type":"Feature","geometry":{"type":"Point","coordinates":[106.5334,29.5666]},"properties":{"id":21145,"klass":"Station","name":"Huaxinjie","opening":2011,"buildstart":0,"closure":999999,"lines":[{"line":"Line 3","line_url_name":"2319-line-3","system":"Chongqing Rail Transit"}]}}, {"type":"Feature","geometry":{"type":"Point","coordinates":[106.52913,29.57618]},"properties":{"id":21146,"klass":"Station","name":"Guanyinqiao","opening":2011,"buildstart":0,"closure":999999,"lines":[{"line":"Line 3","line_url_name":"2319-line-3","system":"Chongqing Rail Transit"}]}}, {"type":"Feature","geometry":{"type":"Point","coordinates":[106.52206,29.58955]},"properties":{"id":21147,"klass":"Station","name":"Hongqihegou","opening":2012,"buildstart":0,"closure":999999,"lines":[{"line":"Line 3","line_url_name":"2319-line-3","system":"Chongqing Rail Transit"}]}}, {"type":"Feature","geometry":{"type":"Point","coordinates":[106.51879,29.5977]},"properties":{"id":21148,"klass":"Station","name":"Jiazhoulu","opening":2011,"buildstart":0,"closure":999999,"lines":[{"line":"Line 3","line_url_name":"2319-line-3","system":"Chongqing Rail Transit"}]}}, {"type":"Feature","geometry":{"type":"Point","coordinates":[106.52634,29.60207]},"properties":{"id":21149,"klass":"Station","name":"Zhengjiayuanzi","opening":2012,"buildstart":0,"closure":999999,"lines":[{"line":"Line 3","line_url_name":"2319-line-3","system":"Chongqing Rail Transit"}]}}, {"type":"Feature","geometry":{"type":"Point","coordinates":[106.54566,29.61974]},"properties":{"id":21153,"klass":"Station","name":"Longtousi","opening":2013,"buildstart":0,"closure":999999,"lines":[{"line":"Line 3","line_url_name":"2319-line-3","system":"Chongqing Rail Transit"}]}}, {"type":"Feature","geometry":{"type":"Point","coordinates":[106.54562,29.611]},"properties":{"id":21152,"klass":"Station","name":"Chongqing Beizhan Nanguang (South Square of Chongqing North)","opening":2011,"buildstart":0,"closure":999999,"lines":[{"line":"Line 3","line_url_name":"2319-line-3","system":"Chongqing Rail Transit"}]}}, {"type":"Feature","geometry":{"type":"Point","coordinates":[106.55149,29.63122]},"properties":{"id":21154,"klass":"Station","name":"Tongjiayuanzi","opening":2011,"buildstart":0,"closure":999999,"lines":[{"line":"Line 3","line_url_name":"2319-line-3","system":"Chongqing Rail Transit"}]}}, {"type":"Feature","geometry":{"type":"Point","coordinates":[106.56689,29.63816]},"properties":{"id":21155,"klass":"Station","name":"Jinyu","opening":2011,"buildstart":0,"closure":999999,"lines":[{"line":"Line 3","line_url_name":"2319-line-3","system":"Chongqing Rail Transit"}]}}, {"type":"Feature","geometry":{"type":"Point","coordinates":[106.56972,29.61097]},"properties":{"id":21173,"klass":"Station","name":"Toutang","opening":2018,"lines":[{"line":"Line 4","line_url_name":"2320-line-4","system":"Chongqing Rail Transit"}]}}, {"type":"Feature","geometry":{"type":"Point","coordinates":[106.55644,29.66416]},"properties":{"id":21157,"klass":"Station","name":"Yuanyang","opening":2011,"buildstart":0,"closure":999999,"lines":[{"line":"Line 3","line_url_name":"2319-line-3","system":"Chongqing Rail Transit"}]}}, {"type":"Feature","geometry":{"type":"Point","coordinates":[106.56016,29.67742]},"properties":{"id":21158,"klass":"Station","name":"Yuan Bo Yuan (The EXPO Garden)","opening":2011,"buildstart":0,"closure":999999,"lines":[{"line":"Line 3","line_url_name":"2319-line-3","system":"Chongqing Rail Transit"}]}}, {"type":"Feature","geometry":{"type":"Point","coordinates":[106.56932,29.68897]},"properties":{"id":21159,"klass":"Station","name":"Cuiyun","opening":2011,"buildstart":0,"closure":999999,"lines":[{"line":"Line 3","line_url_name":"2319-line-3","system":"Chongqing Rail Transit"}]}}, {"type":"Feature","geometry":{"type":"Point","coordinates":[106.58524,29.69045]},"properties":{"id":21160,"klass":"Station","name":"Changfulu","opening":2011,"buildstart":0,"closure":999999,"lines":[{"line":"Line 3","line_url_name":"2319-line-3","system":"Chongqing Rail Transit"}]}}, {"type":"Feature","geometry":{"type":"Point","coordinates":[106.60202,29.69315]},"properties":{"id":21161,"klass":"Station","name":"Huixing","opening":2011,"buildstart":0,"closure":999999,"lines":[{"line":"Line 3","line_url_name":"2319-line-3","system":"Chongqing Rail Transit"}]}}, {"type":"Feature","geometry":{"type":"Point","coordinates":[106.61504,29.70071]},"properties":{"id":21162,"klass":"Station","name":"Shuanglong","opening":2011,"buildstart":0,"closure":999999,"lines":[{"line":"Line 3","line_url_name":"2319-line-3","system":"Chongqing Rail Transit"}]}}, {"type":"Feature","geometry":{"type":"Point","coordinates":[106.63451,29.72112]},"properties":{"id":21164,"klass":"Station","name":"Jiangbei Jichang T2 Hang Zhan Lou (Terminal 2 of Jiangbei Airport)","opening":2011,"buildstart":0,"closure":999999,"lines":[{"line":"Line 3","line_url_name":"2319-line-3","system":"Chongqing Rail Transit"}]}}, {"type":"Feature","geometry":{"type":"Point","coordinates":[106.56383,29.646]},"properties":{"id":21156,"klass":"Station","name":"Jintonglu","opening":2011,"buildstart":0,"closure":999999,"lines":[{"line":"Line 3","line_url_name":"2319-line-3","system":"Chongqing Rail Transit"}]}}, {"type":"Feature","geometry":{"type":"Point","coordinates":[106.62871,29.71386]},"properties":{"id":21163,"klass":"Station","name":"Bijin","opening":2011,"buildstart":0,"closure":999999,"lines":[{"line":"Line 3","line_url_name":"2319-line-3","system":"Chongqing Rail Transit"}]}}, {"type":"Feature","geometry":{"type":"Point","coordinates":[106.63016,29.73928]},"properties":{"id":21166,"klass":"Station","name":"Konggang Dadao","opening":2016,"buildstart":0,"closure":999999,"lines":[{"line":"Line 3","line_url_name":"2319-line-3","system":"Chongqing Rail Transit"}]}}, {"type":"Feature","geometry":{"type":"Point","coordinates":[106.62882,29.73184]},"properties":{"id":21165,"klass":"Station","name":"Shuangfengqiao","opening":2016,"buildstart":0,"closure":999999,"lines":[{"line":"Line 3","line_url_name":"2319-line-3","system":"Chongqing Rail Transit"}]}}, {"type":"Feature","geometry":{"type":"Point","coordinates":[106.6637,29.7941]},"properties":{"id":21170,"klass":"Station","name":"Jurenba","opening":2016,"buildstart":0,"closure":999999,"lines":[{"line":"Line 3","line_url_name":"2319-line-3","system":"Chongqing Rail Transit"}]}}, {"type":"Feature","geometry":{"type":"Point","coordinates":[106.63911,29.75354]},"properties":{"id":21167,"klass":"Station","name":"Gaobaohu","opening":2016,"buildstart":0,"closure":999999,"lines":[{"line":"Line 3","line_url_name":"2319-line-3","system":"Chongqing Rail Transit"}]}}, {"type":"Feature","geometry":{"type":"Point","coordinates":[106.6524,29.78929]},"properties":{"id":21169,"klass":"Station","name":"Lianhua","opening":2016,"buildstart":0,"closure":999999,"lines":[{"line":"Line 3","line_url_name":"2319-line-3","system":"Chongqing Rail Transit"}]}}, {"type":"Feature","geometry":{"type":"Point","coordinates":[106.64906,29.77818]},"properties":{"id":21168,"klass":"Station","name":"Guanyuelu","opening":2016,"buildstart":0,"closure":999999,"lines":[{"line":"Line 3","line_url_name":"2319-line-3","system":"Chongqing Rail Transit"}]}}, {"type":"Feature","geometry":{"type":"Point","coordinates":[106.55686,29.6783]},"properties":{"id":21179,"klass":"Station","name":"Yuan Bo Yuan (The EXPO Garden)","opening":2017,"buildstart":0,"closure":999999,"lines":[{"line":"Line 5","line_url_name":"2321-line-5","system":"Chongqing Rail Transit"}]}}, {"type":"Feature","geometry":{"type":"Point","coordinates":[106.54861,29.67128]},"properties":{"id":21180,"klass":"Station","name":"Danhe","opening":2017,"buildstart":0,"closure":999999,"lines":[{"line":"Line 5","line_url_name":"2321-line-5","system":"Chongqing Rail Transit"}]}}, {"type":"Feature","geometry":{"type":"Point","coordinates":[106.53488,29.66244]},"properties":{"id":21181,"klass":"Station","name":"Huxiajie","opening":2017,"buildstart":0,"closure":999999,"lines":[{"line":"Line 5","line_url_name":"2321-line-5","system":"Chongqing Rail Transit"}]}}, {"type":"Feature","geometry":{"type":"Point","coordinates":[106.56823,29.58043]},"properties":{"id":21197,"klass":"Station","name":"Jiangbeicheng","opening":2014,"buildstart":0,"closure":999999,"lines":[{"line":"Line 6","line_url_name":"2322-line-6","system":"Chongqing Rail Transit"}]}}, {"type":"Feature","geometry":{"type":"Point","coordinates":[106.52609,29.65177]},"properties":{"id":21182,"klass":"Station","name":"Chongguang","opening":2017,"buildstart":0,"closure":999999,"lines":[{"line":"Line 5","line_url_name":"2321-line-5","system":"Chongqing Rail Transit"}]}}, {"type":"Feature","geometry":{"type":"Point","coordinates":[106.56237,29.58783]},"properties":{"id":21196,"klass":"Station","name":"Wulidian","opening":0,"buildstart":2012,"closure":999999,"lines":[]}}, {"type":"Feature","geometry":{"type":"Point","coordinates":[106.53093,29.63435]},"properties":{"id":21183,"klass":"Station","name":"Hemulu","opening":2017,"buildstart":0,"closure":999999,"lines":[{"line":"Line 5","line_url_name":"2321-line-5","system":"Chongqing Rail Transit"}]}}, {"type":"Feature","geometry":{"type":"Point","coordinates":[106.47447,29.63061]},"properties":{"id":21205,"klass":"Station","name":"Dazhulin ","opening":2012,"buildstart":0,"closure":999999,"lines":[{"line":"Line 6","line_url_name":"2322-line-6","system":"Chongqing Rail Transit"}]}}, {"type":"Feature","geometry":{"type":"Point","coordinates":[106.49112,29.57307]},"properties":{"id":21188,"klass":"Station","name":"Dashiba","opening":2018,"buildstart":2013,"closure":999999,"lines":[{"line":"Line 5","line_url_name":"2321-line-5","system":"Chongqing Rail Transit"}]}}, {"type":"Feature","geometry":{"type":"Point","coordinates":[106.51903,29.62611]},"properties":{"id":21184,"klass":"Station","name":"Renhe","opening":2017,"buildstart":0,"closure":999999,"lines":[{"line":"Line 5","line_url_name":"2321-line-5","system":"Chongqing Rail Transit"}]}}, {"type":"Feature","geometry":{"type":"Point","coordinates":[106.60546,29.65264]},"properties":{"id":21233,"klass":"Station","name":"Shangwanlu","opening":2017,"buildstart":0,"closure":999999,"lines":[{"line":"Line 10","line_url_name":"2323-line-10","system":"Chongqing Rail Transit"}]}}, {"type":"Feature","geometry":{"type":"Point","coordinates":[106.50423,29.61973]},"properties":{"id":21185,"klass":"Station","name":"Xingfu Guangchang (Xingfu Square)","opening":2017,"buildstart":0,"closure":999999,"lines":[{"line":"Line 5","line_url_name":"2321-line-5","system":"Chongqing Rail Transit"}]}}, {"type":"Feature","geometry":{"type":"Point","coordinates":[106.50501,29.67139]},"properties":{"id":21217,"klass":"Station","name":"Pingchang","opening":0,"buildstart":0,"closure":999999,"lines":[{"line":"Line 6","line_url_name":"2322-line-6","system":"Chongqing Rail Transit"}]}}, {"type":"Feature","geometry":{"type":"Point","coordinates":[106.52463,29.70554]},"properties":{"id":21219,"klass":"Station","name":"Gaoyikou","opening":0,"buildstart":0,"closure":999999,"lines":[{"line":"Line 6","line_url_name":"2322-line-6","system":"Chongqing Rail Transit"}]}}, {"type":"Feature","geometry":{"type":"Point","coordinates":[106.49487,29.60371]},"properties":{"id":21186,"klass":"Station","name":"Ranjiaba","opening":2017,"buildstart":0,"closure":999999,"lines":[{"line":"Line 5","line_url_name":"2321-line-5","system":"Chongqing Rail Transit"}]}}, {"type":"Feature","geometry":{"type":"Point","coordinates":[106.49472,29.59237]},"properties":{"id":21187,"klass":"Station","name":"Dalongshan","opening":2017,"buildstart":0,"closure":999999,"lines":[{"line":"Line 5","line_url_name":"2321-line-5","system":"Chongqing Rail Transit"}]}}, {"type":"Feature","geometry":{"type":"Point","coordinates":[106.63907,29.49036]},"properties":{"id":21189,"klass":"Station","name":"Chayuan","opening":2014,"buildstart":0,"closure":999999,"lines":[{"line":"Line 6","line_url_name":"2322-line-6","system":"Chongqing Rail Transit"}]}}, {"type":"Feature","geometry":{"type":"Point","coordinates":[106.64596,29.50083]},"properties":{"id":21190,"klass":"Station","name":"Qiujiawan","opening":2014,"buildstart":0,"closure":999999,"lines":[{"line":"Line 6","line_url_name":"2322-line-6","system":"Chongqing Rail Transit"}]}}, {"type":"Feature","geometry":{"type":"Point","coordinates":[106.65405,29.51359]},"properties":{"id":21191,"klass":"Station","name":"Changshengqiao","opening":2014,"buildstart":0,"closure":999999,"lines":[{"line":"Line 6","line_url_name":"2322-line-6","system":"Chongqing Rail Transit"}]}}, {"type":"Feature","geometry":{"type":"Point","coordinates":[106.65091,29.52815]},"properties":{"id":21192,"klass":"Station","name":"Liujiaping","opening":2014,"buildstart":0,"closure":999999,"lines":[{"line":"Line 6","line_url_name":"2322-line-6","system":"Chongqing Rail Transit"}]}}, {"type":"Feature","geometry":{"type":"Point","coordinates":[106.59449,29.55907]},"properties":{"id":21193,"klass":"Station","name":"Shangxinjie","opening":2014,"buildstart":0,"closure":999999,"lines":[{"line":"Line 6","line_url_name":"2322-line-6","system":"Chongqing Rail Transit"}]}}, {"type":"Feature","geometry":{"type":"Point","coordinates":[106.58052,29.56247]},"properties":{"id":21194,"klass":"Station","name":"Xiaoshizi","opening":2014,"buildstart":0,"closure":999999,"lines":[{"line":"Line 6","line_url_name":"2322-line-6","system":"Chongqing Rail Transit"}]}}, {"type":"Feature","geometry":{"type":"Point","coordinates":[106.57334,29.57227]},"properties":{"id":21195,"klass":"Station","name":"Dajuyuan (Grand Theater)","opening":2014,"buildstart":0,"closure":999999,"lines":[{"line":"Line 6","line_url_name":"2322-line-6","system":"Chongqing Rail Transit"}]}}, {"type":"Feature","geometry":{"type":"Point","coordinates":[106.53446,29.59124]},"properties":{"id":21198,"klass":"Station","name":"Huangnibang","opening":2012,"buildstart":0,"closure":999999,"lines":[{"line":"Line 6","line_url_name":"2322-line-6","system":"Chongqing Rail Transit"}]}}, {"type":"Feature","geometry":{"type":"Point","coordinates":[106.54823,29.58692]},"properties":{"id":21199,"klass":"Station","name":"Hongtudi","opening":2012,"buildstart":0,"closure":999999,"lines":[{"line":"Line 6","line_url_name":"2322-line-6","system":"Chongqing Rail Transit"}]}}, {"type":"Feature","geometry":{"type":"Point","coordinates":[106.52194,29.58909]},"properties":{"id":21200,"klass":"Station","name":"Hongqihegou","opening":2012,"buildstart":0,"closure":999999,"lines":[{"line":"Line 6","line_url_name":"2322-line-6","system":"Chongqing Rail Transit"}]}}, {"type":"Feature","geometry":{"type":"Point","coordinates":[106.51013,29.58598]},"properties":{"id":21201,"klass":"Station","name":"Huahuiyuan","opening":2012,"buildstart":0,"closure":999999,"lines":[{"line":"Line 6","line_url_name":"2322-line-6","system":"Chongqing Rail Transit"}]}}, {"type":"Feature","geometry":{"type":"Point","coordinates":[106.49483,29.59284]},"properties":{"id":21202,"klass":"Station","name":"Dalongshan","opening":2012,"buildstart":0,"closure":999999,"lines":[{"line":"Line 6","line_url_name":"2322-line-6","system":"Chongqing Rail Transit"}]}}, {"type":"Feature","geometry":{"type":"Point","coordinates":[106.49501,29.6037]},"properties":{"id":21203,"klass":"Station","name":"Ranjiaba","opening":2012,"buildstart":0,"closure":999999,"lines":[{"line":"Line 6","line_url_name":"2322-line-6","system":"Chongqing Rail Transit"}]}}, {"type":"Feature","geometry":{"type":"Point","coordinates":[106.49538,29.61872]},"properties":{"id":21204,"klass":"Station","name":"Guangdianyuan","opening":2012,"buildstart":0,"closure":999999,"lines":[{"line":"Line 6","line_url_name":"2322-line-6","system":"Chongqing Rail Transit"}]}}, {"type":"Feature","geometry":{"type":"Point","coordinates":[106.47506,29.63774]},"properties":{"id":21206,"klass":"Station","name":"Kangzhuang","opening":2012,"buildstart":0,"closure":999999,"lines":[{"line":"Line 6","line_url_name":"2322-line-6","system":"Chongqing Rail Transit"}]}}, {"type":"Feature","geometry":{"type":"Point","coordinates":[106.47892,29.657]},"properties":{"id":21207,"klass":"Station","name":"Jiuquhe","opening":2013,"buildstart":0,"closure":999999,"lines":[{"line":"Line 6","line_url_name":"2322-line-6","system":"Chongqing Rail Transit"}]}}, {"type":"Feature","geometry":{"type":"Point","coordinates":[106.48566,29.67075]},"properties":{"id":21208,"klass":"Station","name":"Lijia","opening":2012,"buildstart":0,"closure":999999,"lines":[{"line":"Line 6","line_url_name":"2322-line-6","system":"Chongqing Rail Transit"}]}}, {"type":"Feature","geometry":{"type":"Point","coordinates":[106.48706,29.68284]},"properties":{"id":21209,"klass":"Station","name":"Jinshansi","opening":2012,"buildstart":0,"closure":999999,"lines":[{"line":"Line 6","line_url_name":"2322-line-6","system":"Chongqing Rail Transit"}]}}, {"type":"Feature","geometry":{"type":"Point","coordinates":[106.49024,29.72299]},"properties":{"id":21210,"klass":"Station","name":"Caojiawan","opening":2015,"buildstart":0,"closure":999999,"lines":[{"line":"Line 6","line_url_name":"2322-line-6","system":"Chongqing Rail Transit"}]}}, {"type":"Feature","geometry":{"type":"Point","coordinates":[106.48825,29.743]},"properties":{"id":21211,"klass":"Station","name":"Caijia","opening":2015,"buildstart":0,"closure":999999,"lines":[{"line":"Line 6","line_url_name":"2322-line-6","system":"Chongqing Rail Transit"}]}}, {"type":"Feature","geometry":{"type":"Point","coordinates":[106.47563,29.74366]},"properties":{"id":21212,"klass":"Station","name":"Xiangjiagang","opening":2014,"buildstart":0,"closure":999999,"lines":[{"line":"Line 6","line_url_name":"2322-line-6","system":"Chongqing Rail Transit"}]}}, {"type":"Feature","geometry":{"type":"Point","coordinates":[106.40014,29.79167]},"properties":{"id":21213,"klass":"Station","name":"Longfengxi","opening":0,"buildstart":0,"closure":999999,"lines":[{"line":"Line 6","line_url_name":"2322-line-6","system":"Chongqing Rail Transit"}]}}, {"type":"Feature","geometry":{"type":"Point","coordinates":[106.39374,29.80635]},"properties":{"id":21214,"klass":"Station","name":"Zhuangyuanbei","opening":0,"buildstart":0,"closure":999999,"lines":[{"line":"Line 6","line_url_name":"2322-line-6","system":"Chongqing Rail Transit"}]}}, {"type":"Feature","geometry":{"type":"Point","coordinates":[106.41986,29.81901]},"properties":{"id":21215,"klass":"Station","name":"Tiansheng","opening":0,"buildstart":0,"closure":999999,"lines":[{"line":"Line 6","line_url_name":"2322-line-6","system":"Chongqing Rail Transit"}]}}, {"type":"Feature","geometry":{"type":"Point","coordinates":[106.43366,29.82841]},"properties":{"id":21216,"klass":"Station","name":"Beibei","opening":0,"buildstart":0,"closure":999999,"lines":[{"line":"Line 6","line_url_name":"2322-line-6","system":"Chongqing Rail Transit"}]}}, {"type":"Feature","geometry":{"type":"Point","coordinates":[106.5281,29.67936]},"properties":{"id":21218,"klass":"Station","name":"Huangmaoping","opening":0,"buildstart":0,"closure":999999,"lines":[{"line":"Line 6","line_url_name":"2322-line-6","system":"Chongqing Rail Transit"}]}}, {"type":"Feature","geometry":{"type":"Point","coordinates":[106.54197,29.7198]},"properties":{"id":21220,"klass":"Station","name":"Guobo Zhongxin (International Expo Center)","opening":0,"buildstart":0,"closure":999999,"lines":[{"line":"Line 6","line_url_name":"2322-line-6","system":"Chongqing Rail Transit"}]}}, {"type":"Feature","geometry":{"type":"Point","coordinates":[106.54391,29.72958]},"properties":{"id":21221,"klass":"Station","name":"Yuelai","opening":0,"buildstart":0,"closure":999999,"lines":[{"line":"Line 6","line_url_name":"2322-line-6","system":"Chongqing Rail Transit"}]}}, {"type":"Feature","geometry":{"type":"Point","coordinates":[106.54227,29.74469]},"properties":{"id":21222,"klass":"Station","name":"\tWangjiazhuang","opening":2017,"buildstart":0,"closure":999999,"lines":[{"line":"Line 10","line_url_name":"2323-line-10","system":"Chongqing Rail Transit"}]}}, {"type":"Feature","geometry":{"type":"Point","coordinates":[106.54386,29.72973]},"properties":{"id":21223,"klass":"Station","name":"Yuelai","opening":2017,"buildstart":0,"closure":999999,"lines":[{"line":"Line 10","line_url_name":"2323-line-10","system":"Chongqing Rail Transit"}]}}, {"type":"Feature","geometry":{"type":"Point","coordinates":[106.56614,29.72645]},"properties":{"id":21224,"klass":"Station","name":"Zhongxin Gongyuan Xi (Central Park West)","opening":2017,"buildstart":0,"closure":999999,"lines":[{"line":"Line 10","line_url_name":"2323-line-10","system":"Chongqing Rail Transit"}]}}, {"type":"Feature","geometry":{"type":"Point","coordinates":[106.58023,29.72648]},"properties":{"id":21225,"klass":"Station","name":"Zhongxin Gonyuan (Central Park)","opening":2017,"buildstart":0,"closure":999999,"lines":[{"line":"Line 10","line_url_name":"2323-line-10","system":"Chongqing Rail Transit"}]}}, {"type":"Feature","geometry":{"type":"Point","coordinates":[106.5906,29.72649]},"properties":{"id":21226,"klass":"Station","name":"Zhongxin Gongyuan Dong (Central Park East)","opening":2017,"buildstart":0,"closure":999999,"lines":[{"line":"Line 10","line_url_name":"2323-line-10","system":"Chongqing Rail Transit"}]}}, {"type":"Feature","geometry":{"type":"Point","coordinates":[106.60452,29.72332]},"properties":{"id":21227,"klass":"Station","name":"Lushan","opening":2017,"buildstart":0,"closure":999999,"lines":[{"line":"Line 10","line_url_name":"2323-line-10","system":"Chongqing Rail Transit"}]}}, {"type":"Feature","geometry":{"type":"Point","coordinates":[106.62547,29.72086]},"properties":{"id":21228,"klass":"Station","name":"Yubei Guangchang (Yubei Square)","opening":2017,"buildstart":0,"closure":999999,"lines":[{"line":"Line 10","line_url_name":"2323-line-10","system":"Chongqing Rail Transit"}]}}, {"type":"Feature","geometry":{"type":"Point","coordinates":[106.63281,29.7191]},"properties":{"id":21229,"klass":"Station","name":"Jiangbei Jichang T2 Hang Zhan Lou (Terminal 2 of Jiangbei Airport)","opening":2017,"buildstart":0,"closure":999999,"lines":[{"line":"Line 10","line_url_name":"2323-line-10","system":"Chongqing Rail Transit"}]}}, {"type":"Feature","geometry":{"type":"Point","coordinates":[106.62541,29.67658]},"properties":{"id":21231,"klass":"Station","name":"Changhe","opening":2017,"buildstart":0,"closure":999999,"lines":[{"line":"Line 10","line_url_name":"2323-line-10","system":"Chongqing Rail Transit"}]}}, {"type":"Feature","geometry":{"type":"Point","coordinates":[106.61819,29.66144]},"properties":{"id":21232,"klass":"Station","name":"Huanshan Gongyuan (Huanshan Park)","opening":2017,"buildstart":0,"closure":999999,"lines":[{"line":"Line 10","line_url_name":"2323-line-10","system":"Chongqing Rail Transit"}]}}, {"type":"Feature","geometry":{"type":"Point","coordinates":[106.6521,29.70938]},"properties":{"id":21230,"klass":"Station","name":"Jiangbei Jichang T3 Hang Zhan Lou (Terminal 3 of Jiangbei Airport)","opening":2017,"buildstart":0,"closure":999999,"lines":[{"line":"Line 10","line_url_name":"2323-line-10","system":"Chongqing Rail Transit"}]}}, {"type":"Feature","geometry":{"type":"Point","coordinates":[106.58094,29.64113]},"properties":{"id":21234,"klass":"Station","name":"Sanyawan","opening":2017,"buildstart":0,"closure":999999,"lines":[{"line":"Line 10","line_url_name":"2323-line-10","system":"Chongqing Rail Transit"}]}}, {"type":"Feature","geometry":{"type":"Point","coordinates":[106.5621,29.62879]},"properties":{"id":21235,"klass":"Station","name":"\tMinxinjiayuan","opening":2017,"buildstart":0,"closure":999999,"lines":[{"line":"Line 10","line_url_name":"2323-line-10","system":"Chongqing Rail Transit"}]}}, {"type":"Feature","geometry":{"type":"Point","coordinates":[106.54609,29.61841]},"properties":{"id":21236,"klass":"Station","name":"Chongqing Beizhan Beiguang (North Square of Chongqing North)","opening":2017,"buildstart":0,"closure":999999,"lines":[{"line":"Line 10","line_url_name":"2323-line-10","system":"Chongqing Rail Transit"}]}}, {"type":"Feature","geometry":{"type":"Point","coordinates":[106.54718,29.61105]},"properties":{"id":21237,"klass":"Station","name":"Chongqing Beizhan Nanguang (South Square of Chongqing North)","opening":2017,"buildstart":0,"closure":999999,"lines":[{"line":"Line 10","line_url_name":"2323-line-10","system":"Chongqing Rail Transit"}]}}, {"type":"Feature","geometry":{"type":"Point","coordinates":[106.54693,29.60147]},"properties":{"id":21238,"klass":"Station","name":"Longtousi Park","opening":2017,"buildstart":0,"closure":999999,"lines":[{"line":"Line 10","line_url_name":"2323-line-10","system":"Chongqing Rail Transit"}]}}, {"type":"Feature","geometry":{"type":"Point","coordinates":[106.54749,29.58681]},"properties":{"id":21239,"klass":"Station","name":"Hongtudi","opening":2017,"buildstart":0,"closure":999999,"lines":[{"line":"Line 10","line_url_name":"2323-line-10","system":"Chongqing Rail Transit"}]}}, {"type":"Feature","geometry":{"type":"Point","coordinates":[106.54606,29.57609]},"properties":{"id":21240,"klass":"Station","name":"Liyuchi","opening":2017,"buildstart":0,"closure":999999,"lines":[{"line":"Line 10","line_url_name":"2323-line-10","system":"Chongqing Rail Transit"}]}}, {"type":"Feature","geometry":{"type":"Point","coordinates":[106.42603,29.40678]},"properties":{"id":35181,"klass":"Station","name":"Shilinsi","opening":2022,"buildstart":2016,"lines":[{"line":"Jiangtiao line","line_url_name":"4386-jiangtiao-line","system":"Chongqing Rail Transit"}]}}, {"type":"Feature","geometry":{"type":"Point","coordinates":[106.35056,29.40176]},"properties":{"id":35182,"klass":"Station","name":"Jiulongyuan","opening":2022,"buildstart":2016,"lines":[{"line":"Jiangtiao line","line_url_name":"4386-jiangtiao-line","system":"Chongqing Rail Transit"}]}}, {"type":"Feature","geometry":{"type":"Point","coordinates":[106.30924,29.40169]},"properties":{"id":35183,"klass":"Station","name":"Shuangfu","opening":2022,"buildstart":2016,"lines":[{"line":"Jiangtiao line","line_url_name":"4386-jiangtiao-line","system":"Chongqing Rail Transit"}]}}, {"type":"Feature","geometry":{"type":"Point","coordinates":[106.25803,29.38461]},"properties":{"id":35184,"klass":"Station","name":"Xiangtang","opening":2022,"buildstart":2016,"lines":[{"line":"Jiangtiao line","line_url_name":"4386-jiangtiao-line","system":"Chongqing Rail Transit"}]}}, {"type":"Feature","geometry":{"type":"Point","coordinates":[106.25315,29.34617]},"properties":{"id":35185,"klass":"Station","name":"Jiangjin High-Speed Railway","opening":2022,"buildstart":2016,"lines":[{"line":"Jiangtiao line","line_url_name":"4386-jiangtiao-line","system":"Chongqing Rail Transit"}]}}, {"type":"Feature","geometry":{"type":"Point","coordinates":[106.25583,29.3103]},"properties":{"id":35186,"klass":"Station","name":"Shengquansi","opening":2022,"buildstart":2016,"lines":[{"line":"Jiangtiao line","line_url_name":"4386-jiangtiao-line","system":"Chongqing Rail Transit"}]}}, {"type":"Feature","geometry":{"type":"Point","coordinates":[106.54548,29.60413]},"properties":{"id":21151,"klass":"Station","name":"Shiziping","opening":2011,"buildstart":0,"closure":999999,"lines":[{"line":"Line 3","line_url_name":"2319-line-3","system":"Chongqing Rail Transit"}]}}, {"type":"Feature","geometry":{"type":"Point","coordinates":[106.53894,29.56155]},"properties":{"id":21144,"klass":"Station","name":"Niujiaotuo","opening":2011,"buildstart":0,"closure":999999,"lines":[{"line":"Line 3","line_url_name":"2319-line-3","system":"Chongqing Rail Transit"}]}}, {"type":"Feature","geometry":{"type":"Point","coordinates":[106.56957,29.50059]},"properties":{"id":21137,"klass":"Station","name":"Liugongli","opening":2011,"buildstart":0,"closure":999999,"lines":[{"line":"Line 3","line_url_name":"2319-line-3","system":"Chongqing Rail Transit"}]}}, {"type":"Feature","geometry":{"type":"Point","coordinates":[106.56918,29.4916]},"properties":{"id":21136,"klass":"Station","name":"Ertang (Chongqing Jiaotong University)","opening":2011,"buildstart":0,"closure":999999,"lines":[{"line":"Line 3","line_url_name":"2319-line-3","system":"Chongqing Rail Transit"}]}}, {"type":"Feature","geometry":{"type":"Point","coordinates":[106.55898,29.46996]},"properties":{"id":21134,"klass":"Station","name":"Qilong","opening":2012,"buildstart":0,"closure":999999,"lines":[{"line":"Line 3","line_url_name":"2319-line-3","system":"Chongqing Rail Transit"}]}}, {"type":"Feature","geometry":{"type":"Point","coordinates":[106.5555,29.46156]},"properties":{"id":21133,"klass":"Station","name":"Jiugongli","opening":2012,"buildstart":0,"closure":999999,"lines":[{"line":"Line 3","line_url_name":"2319-line-3","system":"Chongqing Rail Transit"}]}}, {"type":"Feature","geometry":{"type":"Point","coordinates":[106.54005,29.41586]},"properties":{"id":21130,"klass":"Station","name":"Dashancun","opening":2012,"buildstart":0,"closure":999999,"lines":[{"line":"Line 3","line_url_name":"2319-line-3","system":"Chongqing Rail Transit"}]}}, {"type":"Feature","geometry":{"type":"Point","coordinates":[106.53943,29.40098]},"properties":{"id":21129,"klass":"Station","name":"Xuetangwan","opening":2012,"buildstart":0,"closure":999999,"lines":[{"line":"Line 3","line_url_name":"2319-line-3","system":"Chongqing Rail Transit"}]}}, {"type":"Feature","geometry":{"type":"Point","coordinates":[106.53551,29.38067]},"properties":{"id":21128,"klass":"Station","name":"Yuhulu","opening":2012,"buildstart":0,"closure":999999,"lines":[{"line":"Line 3","line_url_name":"2319-line-3","system":"Chongqing Rail Transit"}]}}, {"type":"Feature","geometry":{"type":"Point","coordinates":[106.52015,29.37856]},"properties":{"id":21127,"klass":"Station","name":"Jinzhu","opening":2013,"buildstart":0,"closure":999999,"lines":[{"line":"Line 3","line_url_name":"2319-line-3","system":"Chongqing Rail Transit"}]}}, {"type":"Feature","geometry":{"type":"Point","coordinates":[106.49726,29.38715]},"properties":{"id":21124,"klass":"Station","name":"Dajiang","opening":2014,"buildstart":0,"closure":999999,"lines":[{"line":"Line 2","line_url_name":"2318-line-2","system":"Chongqing Rail Transit"}]}}, {"type":"Feature","geometry":{"type":"Point","coordinates":[106.46854,29.46956]},"properties":{"id":21119,"klass":"Station","name":"Tiantangbao","opening":2014,"buildstart":0,"closure":999999,"lines":[{"line":"Line 2","line_url_name":"2318-line-2","system":"Chongqing Rail Transit"}]}}, {"type":"Feature","geometry":{"type":"Point","coordinates":[106.54267,29.52128]},"properties":{"id":24796,"klass":"Station","name":"Haixialu","opening":2018,"buildstart":2013,"lines":[{"line":"Line 0","line_url_name":"3074-line-0","system":"Chongqing Rail Transit"}]}}, {"type":"Feature","geometry":{"type":"Point","coordinates":[106.59634,29.56771]},"properties":{"id":24802,"klass":"Station","name":"Renji","opening":2021,"buildstart":2013,"lines":[{"line":"Line 0","line_url_name":"3074-line-0","system":"Chongqing Rail Transit"}]}}, {"type":"Feature","geometry":{"type":"Point","coordinates":[106.57392,29.52084]},"properties":{"id":24798,"klass":"Station","name":"Sigongli","opening":2018,"buildstart":2013,"lines":[{"line":"Line 0","line_url_name":"3074-line-0","system":"Chongqing Rail Transit"}]}}, {"type":"Feature","geometry":{"type":"Point","coordinates":[106.57931,29.5291]},"properties":{"id":24799,"klass":"Station","name":"Luojiaba","opening":2019,"buildstart":2013,"lines":[{"line":"Line 0","line_url_name":"3074-line-0","system":"Chongqing Rail Transit"}]}}, {"type":"Feature","geometry":{"type":"Point","coordinates":[106.58334,29.53738]},"properties":{"id":24800,"klass":"Station","name":"Haitangxi","opening":2018,"buildstart":2013,"lines":[{"line":"Line 0","line_url_name":"3074-line-0","system":"Chongqing Rail Transit"}]}}, {"type":"Feature","geometry":{"type":"Point","coordinates":[106.59038,29.54948]},"properties":{"id":24801,"klass":"Station","name":"Shanghao","buildstart":2013,"lines":[{"line":"Line 0","line_url_name":"3074-line-0","system":"Chongqing Rail Transit"}]}}, {"type":"Feature","geometry":{"type":"Point","coordinates":[106.59402,29.55908]},"properties":{"id":24803,"klass":"Station","name":"Shangxinjie","opening":2018,"buildstart":2013,"lines":[]}}, {"type":"Feature","geometry":{"type":"Point","coordinates":[106.60081,29.58313]},"properties":{"id":24804,"klass":"Station","name":"Tushan","opening":2018,"buildstart":2013,"lines":[{"line":"Line 0","line_url_name":"3074-line-0","system":"Chongqing Rail Transit"}]}}, {"type":"Feature","geometry":{"type":"Point","coordinates":[106.58904,29.58889]},"properties":{"id":24805,"klass":"Station","name":"Danzishi","opening":2019,"buildstart":2013,"lines":[]}}, {"type":"Feature","geometry":{"type":"Point","coordinates":[106.56247,29.58781]},"properties":{"id":24806,"klass":"Station","name":"Wulidian","opening":2018,"buildstart":2013,"lines":[]}}, {"type":"Feature","geometry":{"type":"Point","coordinates":[106.55627,29.60124]},"properties":{"id":24807,"klass":"Station","name":"Yulu","opening":2018,"buildstart":2013,"lines":[{"line":"Line 0","line_url_name":"3074-line-0","system":"Chongqing Rail Transit"}]}}, {"type":"Feature","geometry":{"type":"Point","coordinates":[106.54714,29.61003]},"properties":{"id":24808,"klass":"Station","name":"Chongqing North Station South Square ","opening":2018,"buildstart":2013,"lines":[{"line":"Line 0","line_url_name":"3074-line-0","system":"Chongqing Rail Transit"}]}}, {"type":"Feature","geometry":{"type":"Point","coordinates":[106.50813,29.61054]},"properties":{"id":24810,"klass":"Station","name":"Honghu East Road","opening":2018,"buildstart":2013,"lines":[]}}, {"type":"Feature","geometry":{"type":"Point","coordinates":[106.52305,29.61103]},"properties":{"id":24809,"klass":"Station","name":"Min'an Ave","opening":2019,"buildstart":2013,"lines":[{"line":"Line 0","line_url_name":"3074-line-0","system":"Chongqing Rail Transit"}]}}, {"type":"Feature","geometry":{"type":"Point","coordinates":[106.50149,29.60644]},"properties":{"id":24811,"klass":"Station","name":"Dongbu Park","opening":2018,"buildstart":2013,"lines":[{"line":"Line 0","line_url_name":"3074-line-0","system":"Chongqing Rail Transit"}]}}, {"type":"Feature","geometry":{"type":"Point","coordinates":[106.49523,29.60364]},"properties":{"id":24812,"klass":"Station","name":"Ranjiaba","opening":2018,"buildstart":2013,"lines":[{"line":"Line 0","line_url_name":"3074-line-0","system":"Chongqing Rail Transit"}]}}, {"type":"Feature","geometry":{"type":"Point","coordinates":[106.48446,29.6036]},"properties":{"id":24813,"klass":"Station","name":"Sports Park","opening":2018,"buildstart":2013,"lines":[{"line":"Line 0","line_url_name":"3074-line-0","system":"Chongqing Rail Transit"}]}}, {"type":"Feature","geometry":{"type":"Point","coordinates":[106.4788,29.59647]},"properties":{"id":24814,"klass":"Station","name":"Nanqiaosi","opening":2019,"buildstart":2013,"lines":[{"line":"Line 0","line_url_name":"3074-line-0","system":"Chongqing Rail Transit"}]}}, {"type":"Feature","geometry":{"type":"Point","coordinates":[106.45944,29.56933]},"properties":{"id":24816,"klass":"Station","name":"Chongqing University","opening":2018,"buildstart":2013,"lines":[{"line":"Line 0","line_url_name":"3074-line-0","system":"Chongqing Rail Transit"}]}}, {"type":"Feature","geometry":{"type":"Point","coordinates":[106.45562,29.55835]},"properties":{"id":24817,"klass":"Station","name":"Shapingba","opening":2018,"buildstart":2013,"lines":[{"line":"Line 0","line_url_name":"3074-line-0","system":"Chongqing Rail Transit"}]}}, {"type":"Feature","geometry":{"type":"Point","coordinates":[106.45486,29.54487]},"properties":{"id":24818,"klass":"Station","name":"Tianxingqiao","opening":2021,"buildstart":2013,"lines":[]}}, {"type":"Feature","geometry":{"type":"Point","coordinates":[106.45258,29.53748]},"properties":{"id":24819,"klass":"Station","name":"Chongqing Library","opening":2018,"buildstart":2013,"lines":[{"line":"Line 0","line_url_name":"3074-line-0","system":"Chongqing Rail Transit"}]}}, {"type":"Feature","geometry":{"type":"Point","coordinates":[106.44466,29.52683]},"properties":{"id":24820,"klass":"Station","name":"Fengmingshan","opening":2021,"buildstart":2013,"lines":[{"line":"Line 0","line_url_name":"3074-line-0","system":"Chongqing Rail Transit"}]}}, {"type":"Feature","geometry":{"type":"Point","coordinates":[106.43894,29.52218]},"properties":{"id":24821,"klass":"Station","name":"Shangqiao","opening":2021,"buildstart":2013,"lines":[{"line":"Line 0","line_url_name":"3074-line-0","system":"Chongqing Rail Transit"}]}}, {"type":"Feature","geometry":{"type":"Point","coordinates":[106.44902,29.49825]},"properties":{"id":24823,"klass":"Station","name":"Hualong","opening":2021,"buildstart":2013,"lines":[{"line":"Line 0","line_url_name":"3074-line-0","system":"Chongqing Rail Transit"}]}}, {"type":"Feature","geometry":{"type":"Point","coordinates":[106.45824,29.50884]},"properties":{"id":24824,"klass":"Station","name":"Erlang","opening":2021,"buildstart":2013,"lines":[{"line":"Line 0","line_url_name":"3074-line-0","system":"Chongqing Rail Transit"}]}}, {"type":"Feature","geometry":{"type":"Point","coordinates":[106.46775,29.51858]},"properties":{"id":24825,"klass":"Station","name":"Caiyunhu","opening":2019,"buildstart":2013,"lines":[{"line":"Line 0","line_url_name":"3074-line-0","system":"Chongqing Rail Transit"}]}}, {"type":"Feature","geometry":{"type":"Point","coordinates":[106.47939,29.52296]},"properties":{"id":24826,"klass":"Station","name":"Chenjiaping","opening":2019,"buildstart":2013,"lines":[{"line":"Line 0","line_url_name":"3074-line-0","system":"Chongqing Rail Transit"}]}}, {"type":"Feature","geometry":{"type":"Point","coordinates":[106.51621,29.52294]},"properties":{"id":24828,"klass":"Station","name":"Xiejiawan","opening":2019,"buildstart":2013,"lines":[{"line":"Line 0","line_url_name":"3074-line-0","system":"Chongqing Rail Transit"}]}}, {"type":"Feature","geometry":{"type":"Point","coordinates":[106.4733,29.52818]},"properties":{"id":24833,"klass":"Station","name":"Shixinlu","opening":2021,"buildstart":2013,"lines":[{"line":"Line 5","line_url_name":"2321-line-5","system":"Chongqing Rail Transit"}]}}, {"type":"Feature","geometry":{"type":"Point","coordinates":[106.46433,29.52296]},"properties":{"id":24834,"klass":"Station","name":"Bashan","opening":2021,"buildstart":2013,"lines":[{"line":"Line 5","line_url_name":"2321-line-5","system":"Chongqing Rail Transit"}]}}, {"type":"Feature","geometry":{"type":"Point","coordinates":[106.4495,29.51602]},"properties":{"id":24835,"klass":"Station","name":"Fengxilu","opening":2021,"buildstart":2013,"lines":[{"line":"Line 5","line_url_name":"2321-line-5","system":"Chongqing Rail Transit"}]}}, {"type":"Feature","geometry":{"type":"Point","coordinates":[106.43543,29.50279]},"properties":{"id":24836,"klass":"Station","name":"Chongqing West Station","opening":2021,"buildstart":2013,"lines":[{"line":"Line 0","line_url_name":"3074-line-0","system":"Chongqing Rail Transit"}]}}, {"type":"Feature","geometry":{"type":"Point","coordinates":[106.43528,29.50271]},"properties":{"id":24822,"klass":"Station","name":"Chongqing West Station","opening":2021,"buildstart":2013,"lines":[{"line":"Line 5","line_url_name":"2321-line-5","system":"Chongqing Rail Transit"}]}}, {"type":"Feature","geometry":{"type":"Point","coordinates":[106.44141,29.49642]},"properties":{"id":24837,"klass":"Station","name":"Huayan Temple","opening":2021,"buildstart":2013,"lines":[{"line":"Line 5","line_url_name":"2321-line-5","system":"Chongqing Rail Transit"}]}}, {"type":"Feature","geometry":{"type":"Point","coordinates":[106.44213,29.46182]},"properties":{"id":24839,"klass":"Station","name":"Zhongliangshan","opening":2021,"buildstart":2013,"lines":[{"line":"Line 5","line_url_name":"2321-line-5","system":"Chongqing Rail Transit"}]}}, {"type":"Feature","geometry":{"type":"Point","coordinates":[106.43816,29.44537]},"properties":{"id":24840,"klass":"Station","name":"Jinjianlu","opening":2021,"buildstart":2013,"lines":[{"line":"Line 5","line_url_name":"2321-line-5","system":"Chongqing Rail Transit"}]}}, {"type":"Feature","geometry":{"type":"Point","coordinates":[106.43644,29.43171]},"properties":{"id":24841,"klass":"Station","name":"Huayan Center","opening":2021,"buildstart":2013,"lines":[{"line":"Line 5","line_url_name":"2321-line-5","system":"Chongqing Rail Transit"}]}}, {"type":"Feature","geometry":{"type":"Point","coordinates":[106.43363,29.41089]},"properties":{"id":24842,"klass":"Station","name":"Tiaodeng","opening":2021,"buildstart":2013,"lines":[{"line":"Line 5","line_url_name":"2321-line-5","system":"Chongqing Rail Transit"}]}}, {"type":"Feature","geometry":{"type":"Point","coordinates":[106.44891,29.48313]},"properties":{"id":24838,"klass":"Station","name":"Huachenglu","opening":2021,"buildstart":2013,"lines":[{"line":"Line 5","line_url_name":"2321-line-5","system":"Chongqing Rail Transit"}]}}, {"type":"Feature","geometry":{"type":"Point","coordinates":[106.44605,29.47464]},"properties":{"id":24843,"klass":"Station","name":"Banshan","opening":2021,"buildstart":2013,"lines":[{"line":"Line 5","line_url_name":"2321-line-5","system":"Chongqing Rail Transit"}]}}, {"type":"Feature","geometry":{"type":"Point","coordinates":[106.43507,29.52751]},"properties":{"id":24844,"klass":"Station","name":"Xinqiao","buildstart":2016,"lines":[{"line":"Line 9","line_url_name":"3075-line-9","system":"Chongqing Rail Transit"}]}}, {"type":"Feature","geometry":{"type":"Point","coordinates":[106.5303,29.57543]},"properties":{"id":24855,"klass":"Station","name":"Guanyinqiao","opening":2022,"buildstart":2016,"lines":[{"line":"Line 9","line_url_name":"3075-line-9","system":"Chongqing Rail Transit"}]}}, {"type":"Feature","geometry":{"type":"Point","coordinates":[106.52248,29.57275]},"properties":{"id":24854,"klass":"Station","name":"Mahuangliang","opening":2022,"buildstart":2016,"lines":[{"line":"Line 9","line_url_name":"3075-line-9","system":"Chongqing Rail Transit"}]}}, {"type":"Feature","geometry":{"type":"Point","coordinates":[106.51779,29.56299]},"properties":{"id":24853,"klass":"Station","name":"Lijiaping","opening":2022,"buildstart":2016,"lines":[{"line":"Line 9","line_url_name":"3075-line-9","system":"Chongqing Rail Transit"}]}}, {"type":"Feature","geometry":{"type":"Point","coordinates":[106.51497,29.55276]},"properties":{"id":24852,"klass":"Station","name":"Hualongqiao","opening":2022,"buildstart":2016,"lines":[{"line":"Line 9","line_url_name":"3075-line-9","system":"Chongqing Rail Transit"}]}}, {"type":"Feature","geometry":{"type":"Point","coordinates":[106.47669,29.5539]},"properties":{"id":24849,"klass":"Station","name":"Tuwan","opening":2022,"buildstart":2016,"lines":[{"line":"Line 9","line_url_name":"3075-line-9","system":"Chongqing Rail Transit"}]}}, {"type":"Feature","geometry":{"type":"Point","coordinates":[106.46508,29.55603]},"properties":{"id":24848,"klass":"Station","name":"Xiaolongkan","opening":2022,"buildstart":2016,"lines":[{"line":"Line 9","line_url_name":"3075-line-9","system":"Chongqing Rail Transit"}]}}, {"type":"Feature","geometry":{"type":"Point","coordinates":[106.44741,29.55355]},"properties":{"id":24847,"klass":"Station","name":"Tianlilu","opening":2022,"buildstart":2013,"lines":[{"line":"Line 9","line_url_name":"3075-line-9","system":"Chongqing Rail Transit"}]}}, {"type":"Feature","geometry":{"type":"Point","coordinates":[106.44515,29.54049]},"properties":{"id":24845,"klass":"Station","name":"Gaotanyan","opening":2022,"buildstart":2016,"lines":[{"line":"Line 9","line_url_name":"3075-line-9","system":"Chongqing Rail Transit"}]}}, {"type":"Feature","geometry":{"type":"Point","coordinates":[106.56593,29.52643]},"properties":{"id":24882,"klass":"Station","name":"Nanping","buildstart":2016,"lines":[{"line":"Line 10","line_url_name":"2323-line-10","system":"Chongqing Rail Transit"}]}}, {"type":"Feature","geometry":{"type":"Point","coordinates":[106.55414,29.50633]},"properties":{"id":24881,"klass":"Station","name":"Lanhualu","opening":2023,"buildstart":2016,"lines":[{"line":"Line 10","line_url_name":"2323-line-10","system":"Chongqing Rail Transit"}]}}, {"type":"Feature","geometry":{"type":"Point","coordinates":[106.55684,29.52606]},"properties":{"id":24879,"klass":"Station","name":"Wanshoulu","opening":2023,"buildstart":2016,"lines":[{"line":"Line 10","line_url_name":"2323-line-10","system":"Chongqing Rail Transit"}]}}, {"type":"Feature","geometry":{"type":"Point","coordinates":[106.49724,29.526]},"properties":{"id":24827,"klass":"Station","name":"Olympic Sports Center","opening":2019,"buildstart":2013,"lines":[{"line":"Line 0","line_url_name":"3074-line-0","system":"Chongqing Rail Transit"},{"line":"Line 18","line_url_name":"4385-line-18","system":"Chongqing Rail Transit"}]}}, {"type":"Feature","geometry":{"type":"Point","coordinates":[106.49514,29.54151]},"properties":{"id":24831,"klass":"Station","name":"Xietaizi","opening":2023,"buildstart":2013,"lines":[{"line":"Line 5","line_url_name":"2321-line-5","system":"Chongqing Rail Transit"}]}}, {"type":"Feature","geometry":{"type":"Point","coordinates":[106.49957,29.55374]},"properties":{"id":24851,"klass":"Station","name":"Fuhualu","opening":2022,"buildstart":2016,"lines":[{"line":"Line 9","line_url_name":"3075-line-9","system":"Chongqing Rail Transit"},{"line":"Line 18","line_url_name":"4385-line-18","system":"Chongqing Rail Transit"}]}}, {"type":"Feature","geometry":{"type":"Point","coordinates":[106.54423,29.76732]},"properties":{"id":24883,"klass":"Station","name":"Qingxi River","opening":2020,"buildstart":2016,"lines":[]}}, {"type":"Feature","geometry":{"type":"Point","coordinates":[106.5505,29.78407]},"properties":{"id":24884,"klass":"Station","name":"Liujiayuanzi","opening":2020,"buildstart":2016,"lines":[{"line":"Line 6","line_url_name":"2322-line-6","system":"Chongqing Rail Transit"}]}}, {"type":"Feature","geometry":{"type":"Point","coordinates":[106.54555,29.81026]},"properties":{"id":24885,"klass":"Station","name":"Siyuan","opening":2020,"buildstart":2016,"lines":[{"line":"Line 6","line_url_name":"2322-line-6","system":"Chongqing Rail Transit"}]}}, {"type":"Feature","geometry":{"type":"Point","coordinates":[106.54627,29.82519]},"properties":{"id":24886,"klass":"Station","name":"Fuxing","opening":2020,"buildstart":2016,"lines":[{"line":"Line 6","line_url_name":"2322-line-6","system":"Chongqing Rail Transit"}]}}, {"type":"Feature","geometry":{"type":"Point","coordinates":[106.54553,29.83574]},"properties":{"id":24887,"klass":"Station","name":"Hongyanping","opening":2020,"buildstart":2016,"lines":[{"line":"Line 6","line_url_name":"2322-line-6","system":"Chongqing Rail Transit"}]}}, {"type":"Feature","geometry":{"type":"Point","coordinates":[106.5527,29.84703]},"properties":{"id":24888,"klass":"Station","name":"Shaheba","opening":2020,"buildstart":2016,"lines":[{"line":"Line 6","line_url_name":"2322-line-6","system":"Chongqing Rail Transit"}]}}, {"type":"Feature","geometry":{"type":"Point","coordinates":[106.59864,29.69299]},"properties":{"id":24868,"klass":"Station","name":"Xingke Ave","opening":2022,"buildstart":2016,"lines":[{"line":"Line 9","line_url_name":"3075-line-9","system":"Chongqing Rail Transit"}]}}, {"type":"Feature","geometry":{"type":"Point","coordinates":[106.60473,29.68189]},"properties":{"id":24867,"klass":"Station","name":"Baoshenghu","opening":2022,"buildstart":2016,"lines":[{"line":"Line 9","line_url_name":"3075-line-9","system":"Chongqing Rail Transit"}]}}, {"type":"Feature","geometry":{"type":"Point","coordinates":[106.61277,29.66422]},"properties":{"id":24866,"klass":"Station","name":"Qinggangping","opening":2022,"buildstart":2016,"lines":[{"line":"Line 9","line_url_name":"3075-line-9","system":"Chongqing Rail Transit"}]}}, {"type":"Feature","geometry":{"type":"Point","coordinates":[106.60568,29.65251]},"properties":{"id":24865,"klass":"Station","name":"Shangwanlu","opening":2022,"buildstart":2016,"lines":[{"line":"Line 9","line_url_name":"3075-line-9","system":"Chongqing Rail Transit"}]}}, {"type":"Feature","geometry":{"type":"Point","coordinates":[106.59465,29.64301]},"properties":{"id":24864,"klass":"Station","name":"Shipanhe","opening":2022,"buildstart":2016,"lines":[{"line":"Line 9","line_url_name":"3075-line-9","system":"Chongqing Rail Transit"}]}}, {"type":"Feature","geometry":{"type":"Point","coordinates":[106.59241,29.62789]},"properties":{"id":24863,"klass":"Station","name":"Hejialiang","opening":2022,"buildstart":2016,"lines":[{"line":"Line 9","line_url_name":"3075-line-9","system":"Chongqing Rail Transit"}]}}, {"type":"Feature","geometry":{"type":"Point","coordinates":[106.56999,29.61078]},"properties":{"id":24861,"klass":"Station","name":"Toutang","opening":2022,"buildstart":2016,"lines":[{"line":"Line 9","line_url_name":"3075-line-9","system":"Chongqing Rail Transit"}]}}, {"type":"Feature","geometry":{"type":"Point","coordinates":[106.57844,29.61871]},"properties":{"id":24862,"klass":"Station","name":"Baoshuigang","opening":2022,"buildstart":2016,"lines":[{"line":"Line 9","line_url_name":"3075-line-9","system":"Chongqing Rail Transit"}]}}, {"type":"Feature","geometry":{"type":"Point","coordinates":[106.56783,29.59701]},"properties":{"id":24860,"klass":"Station","name":"Gailanxi","opening":2022,"buildstart":2016,"lines":[{"line":"Line 9","line_url_name":"3075-line-9","system":"Chongqing Rail Transit"}]}}, {"type":"Feature","geometry":{"type":"Point","coordinates":[106.56499,29.58882]},"properties":{"id":24859,"klass":"Station","name":"Wulidian","opening":2022,"buildstart":2016,"lines":[]}}, {"type":"Feature","geometry":{"type":"Point","coordinates":[106.56799,29.5804]},"properties":{"id":24858,"klass":"Station","name":"Jiangbeicheng","opening":2022,"buildstart":2016,"lines":[{"line":"Line 9","line_url_name":"3075-line-9","system":"Chongqing Rail Transit"}]}}, {"type":"Feature","geometry":{"type":"Point","coordinates":[106.55953,29.57572]},"properties":{"id":24857,"klass":"Station","name":"Liujiatai","opening":2022,"buildstart":2016,"lines":[{"line":"Line 9","line_url_name":"3075-line-9","system":"Chongqing Rail Transit"}]}}, {"type":"Feature","geometry":{"type":"Point","coordinates":[106.5827,29.56824]},"properties":{"id":24874,"klass":"Station","name":"Chaotianmen","opening":2020,"lines":[{"line":"Line 1","line_url_name":"2311-line-1","system":"Chongqing Rail Transit"}]}}, {"type":"Feature","geometry":{"type":"Point","coordinates":[106.58143,29.74784]},"properties":{"id":24872,"klass":"Station","name":"Congyansi","opening":2023,"buildstart":2016,"lines":[{"line":"Line 9","line_url_name":"3075-line-9","system":"Chongqing Rail Transit"}]}}, {"type":"Feature","geometry":{"type":"Point","coordinates":[106.58973,29.7261]},"properties":{"id":24871,"klass":"Station","name":"Central Park East","opening":2023,"buildstart":2016,"lines":[{"line":"Line 9","line_url_name":"3075-line-9","system":"Chongqing Rail Transit"}]}}, {"type":"Feature","geometry":{"type":"Point","coordinates":[106.59267,29.71737]},"properties":{"id":24870,"klass":"Station","name":"Langui Ave","opening":2023,"buildstart":2016,"lines":[{"line":"Line 9","line_url_name":"3075-line-9","system":"Chongqing Rail Transit"}]}}, {"type":"Feature","geometry":{"type":"Point","coordinates":[106.59579,29.70932]},"properties":{"id":24869,"klass":"Station","name":"Chunhua Ave","opening":2023,"buildstart":2016,"lines":[{"line":"Line 9","line_url_name":"3075-line-9","system":"Chongqing Rail Transit"}]}}, {"type":"Feature","geometry":{"type":"Point","coordinates":[106.56547,29.54154]},"properties":{"id":24878,"klass":"Station","name":"Houbao","opening":2023,"buildstart":2016,"lines":[{"line":"Line 10","line_url_name":"2323-line-10","system":"Chongqing Rail Transit"}]}}, {"type":"Feature","geometry":{"type":"Point","coordinates":[106.55879,29.55705]},"properties":{"id":24877,"klass":"Station","name":"Qixinggang","opening":2023,"buildstart":2016,"lines":[{"line":"Line 10","line_url_name":"2323-line-10","system":"Chongqing Rail Transit"}]}}, {"type":"Feature","geometry":{"type":"Point","coordinates":[106.5534,29.56168]},"properties":{"id":24876,"klass":"Station","name":"Auditorium","opening":2023,"buildstart":2016,"lines":[{"line":"Line 10","line_url_name":"2323-line-10","system":"Chongqing Rail Transit"}]}}, {"type":"Feature","geometry":{"type":"Point","coordinates":[106.54639,29.56867]},"properties":{"id":24875,"klass":"Station","name":"Zengjiayan","opening":2023,"buildstart":2016,"lines":[{"line":"Line 10","line_url_name":"2323-line-10","system":"Chongqing Rail Transit"}]}}, {"type":"Feature","geometry":{"type":"Point","coordinates":[106.54429,29.61858]},"properties":{"id":21172,"klass":"Station","name":"Chongqing Beizhan Beiguang (North Square of Chongqing North)","opening":2018,"lines":[{"line":"Line 4","line_url_name":"2320-line-4","system":"Chongqing Rail Transit"}]}}, {"type":"Feature","geometry":{"type":"Point","coordinates":[106.52318,29.6111]},"properties":{"id":21171,"klass":"Station","name":"Min'an Dadao (Min'an Avenue)","opening":2019,"lines":[{"line":"Line 4","line_url_name":"2320-line-4","system":"Chongqing Rail Transit"}]}}, {"type":"Feature","geometry":{"type":"Point","coordinates":[106.57827,29.6189]},"properties":{"id":21174,"klass":"Station","name":"Baoshuigang","opening":2018,"lines":[{"line":"Line 4","line_url_name":"2320-line-4","system":"Chongqing Rail Transit"}]}}, {"type":"Feature","geometry":{"type":"Point","coordinates":[106.60227,29.62457]},"properties":{"id":21175,"klass":"Station","name":"Cuntan","opening":2018,"lines":[{"line":"Line 4","line_url_name":"2320-line-4","system":"Chongqing Rail Transit"}]}}, {"type":"Feature","geometry":{"type":"Point","coordinates":[106.61745,29.62758]},"properties":{"id":21176,"klass":"Station","name":"Heishizi","opening":2018,"lines":[{"line":"Line 4","line_url_name":"2320-line-4","system":"Chongqing Rail Transit"}]}}, {"type":"Feature","geometry":{"type":"Point","coordinates":[106.63759,29.60827]},"properties":{"id":21177,"klass":"Station","name":"Taipingchong","opening":2018,"lines":[{"line":"Line 4","line_url_name":"2320-line-4","system":"Chongqing Rail Transit"}]}}, {"type":"Feature","geometry":{"type":"Point","coordinates":[106.65506,29.60838]},"properties":{"id":21178,"klass":"Station","name":"Tangjiatuo ","opening":2018,"lines":[{"line":"Line 4","line_url_name":"2320-line-4","system":"Chongqing Rail Transit"}]}}, {"type":"Feature","geometry":{"type":"Point","coordinates":[106.66585,29.61704]},"properties":{"id":33886,"klass":"Station","name":"","osm_id":6898635922,"osm_tags":"{\"name\":\"\",\"name:en\":\"Tieshanping\",\"public_transport\":\"stop_position\",\"railway\":\"stop\",\"subway\":\"yes\"}","osm_metadata":"{\"version\":4}","opening":2022,"lines":[{"line":"Line 4","line_url_name":"2320-line-4","system":"Chongqing Rail Transit"}]}}, {"type":"Feature","geometry":{"type":"Point","coordinates":[106.71228,29.60337]},"properties":{"id":33890,"klass":"Station","name":"","osm_id":8762782052,"osm_tags":"{\"name\":\"\",\"name:en\":\"Luqi\",\"public_transport\":\"stop_position\",\"railway\":\"stop\",\"subway\":\"yes\"}","osm_metadata":"{\"version\":2}","opening":2022,"lines":[{"line":"Line 4","line_url_name":"2320-line-4","system":"Chongqing Rail Transit"}]}}, {"type":"Feature","geometry":{"type":"Point","coordinates":[106.73557,29.61318]},"properties":{"id":33897,"klass":"Station","name":"","osm_id":9863155670,"osm_tags":"{\"name\":\"\",\"name:en\":\"Guoyuan Logistics Hub\",\"public_transport\":\"stop_position\",\"railway\":\"stop\",\"subway\":\"yes\"}","osm_metadata":"{\"version\":1}","opening":2022,"lines":[{"line":"Line 4","line_url_name":"2320-line-4","system":"Chongqing Rail Transit"}]}}, {"type":"Feature","geometry":{"type":"Point","coordinates":[106.75916,29.62648]},"properties":{"id":33891,"klass":"Station","name":"","osm_id":8764010477,"osm_tags":"{\"name\":\"\",\"name:en\":\"Yuzui\",\"public_transport\":\"stop_position\",\"railway\":\"stop\",\"subway\":\"yes\"}","osm_metadata":"{\"version\":2}","opening":2022,"lines":[{"line":"Line 4","line_url_name":"2320-line-4","system":"Chongqing Rail Transit"}]}}, {"type":"Feature","geometry":{"type":"Point","coordinates":[106.77151,29.62975]},"properties":{"id":33892,"klass":"Station","name":"","osm_id":8764018268,"osm_tags":"{\"name\":\"\",\"name:en\":\"Yanping\",\"public_transport\":\"stop_position\",\"railway\":\"stop\",\"subway\":\"yes\"}","osm_metadata":"{\"version\":3}","opening":2022,"lines":[{"line":"Line 4","line_url_name":"2320-line-4","system":"Chongqing Rail Transit"}]}}, {"type":"Feature","geometry":{"type":"Point","coordinates":[106.79564,29.64112]},"properties":{"id":33893,"klass":"Station","name":"","osm_id":8764018274,"osm_tags":"{\"name\":\"\",\"name:en\":\"Shiheqing\",\"public_transport\":\"stop_position\",\"railway\":\"stop\",\"subway\":\"yes\"}","osm_metadata":"{\"version\":3}","opening":2022,"lines":[{"line":"Line 4","line_url_name":"2320-line-4","system":"Chongqing Rail Transit"}]}}, {"type":"Feature","geometry":{"type":"Point","coordinates":[106.79627,29.65884]},"properties":{"id":33889,"klass":"Station","name":"","osm_id":6898636020,"osm_tags":"{\"name\":\"\",\"name:en\":\"Fusheng\",\"public_transport\":\"stop_position\",\"railway\":\"stop\",\"subway\":\"yes\"}","osm_metadata":"{\"version\":3}","opening":2022,"lines":[{"line":"Line 4","line_url_name":"2320-line-4","system":"Chongqing Rail Transit"}]}}, {"type":"Feature","geometry":{"type":"Point","coordinates":[106.79337,29.67064]},"properties":{"id":33896,"klass":"Station","name":"","osm_id":9863155668,"osm_tags":"{\"name\":\"\",\"name:en\":\"Sanbanxi\",\"public_transport\":\"stop_position\",\"railway\":\"stop\",\"subway\":\"yes\"}","osm_metadata":"{\"version\":1}","opening":2022,"lines":[{"line":"Line 4","line_url_name":"2320-line-4","system":"Chongqing Rail Transit"}]}}, {"type":"Feature","geometry":{"type":"Point","coordinates":[106.78974,29.69215]},"properties":{"id":33887,"klass":"Station","name":"","osm_id":6898629084,"osm_tags":"{\"name\":\"\",\"name:en\":\"Longyi Ave.\",\"public_transport\":\"stop_position\",\"railway\":\"stop\",\"subway\":\"yes\"}","osm_metadata":"{\"version\":3}","opening":2022,"lines":[{"line":"Line 4","line_url_name":"2320-line-4","system":"Chongqing Rail Transit"}]}}, {"type":"Feature","geometry":{"type":"Point","coordinates":[106.79781,29.70418]},"properties":{"id":33895,"klass":"Station","name":"","osm_id":9835918745,"osm_tags":"{\"name\":\"\",\"name:en\":\"Longxing\",\"public_transport\":\"stop_position\",\"railway\":\"stop\",\"subway\":\"yes\"}","osm_metadata":"{\"version\":2}","opening":2022,"lines":[{"line":"Line 4","line_url_name":"2320-line-4","system":"Chongqing Rail Transit"}]}}, {"type":"Feature","geometry":{"type":"Point","coordinates":[106.79904,29.71385]},"properties":{"id":33888,"klass":"Station","name":"","osm_id":6898635550,"osm_tags":"{\"name\":\"\",\"name:en\":\"Gaoshita\",\"public_transport\":\"stop_position\",\"railway\":\"stop\",\"subway\":\"yes\"}","osm_metadata":"{\"version\":2}","opening":2022,"lines":[{"line":"Line 4","line_url_name":"2320-line-4","system":"Chongqing Rail Transit"}]}}, {"type":"Feature","geometry":{"type":"Point","coordinates":[106.80016,29.7318]},"properties":{"id":33894,"klass":"Station","name":"","osm_id":8764018315,"osm_tags":"{\"name\":\"\",\"name:en\":\"Pufu\",\"public_transport\":\"stop_position\",\"railway\":\"stop\",\"subway\":\"yes\"}","osm_metadata":"{\"version\":3}","opening":2022,"lines":[{"line":"Line 4","line_url_name":"2320-line-4","system":"Chongqing Rail Transit"}]}}, {"type":"Feature","geometry":{"type":"Point","coordinates":[106.83725,29.77433]},"properties":{"id":33898,"klass":"Station","name":"","osm_id":8764018346,"osm_tags":"{\"name\":\"\",\"name:en\":\"Huangling\",\"public_transport\":\"stop_position\",\"railway\":\"stop\",\"subway\":\"yes\"}","osm_metadata":"{\"version\":2}","opening":2022,"lines":[{"line":"Line 4","line_url_name":"2320-line-4","system":"Chongqing Rail Transit"}]}}, {"type":"Feature","geometry":{"type":"Point","coordinates":[106.8113,29.74467]},"properties":{"id":33899,"klass":"Station","name":"","osm_id":9468759310,"osm_tags":"{\"name\":\"\",\"name:en\":\"Tongzilin\",\"public_transport\":\"stop_position\",\"railway\":\"stop\",\"subway\":\"yes\"}","osm_metadata":"{\"version\":3}","opening":2022,"lines":[{"line":"Line 4","line_url_name":"2320-line-4","system":"Chongqing Rail Transit"}]}}, {"type":"Feature","geometry":{"type":"Point","coordinates":[106.82977,29.76231]},"properties":{"id":33900,"klass":"Station","name":"","osm_id":9863151261,"osm_tags":"{\"name\":\"\",\"name:en\":\"Shichuan\",\"public_transport\":\"stop_position\",\"railway\":\"stop\",\"subway\":\"yes\"}","osm_metadata":"{\"version\":1}","opening":2022,"lines":[{"line":"Line 4","line_url_name":"2320-line-4","system":"Chongqing Rail Transit"}]}}, {"type":"Feature","geometry":{"type":"Point","coordinates":[106.54477,29.57595]},"properties":{"id":24856,"klass":"Station","name":"Liyuchi","opening":2022,"buildstart":2016,"lines":[{"line":"Line 9","line_url_name":"3075-line-9","system":"Chongqing Rail Transit"}]}}, {"type":"Feature","geometry":{"type":"Point","coordinates":[106.45645,29.55759]},"properties":{"id":24846,"klass":"Station","name":"Shapingba","opening":2022,"buildstart":2016,"lines":[{"line":"Line 9","line_url_name":"3075-line-9","system":"Chongqing Rail Transit"}]}}, {"type":"Feature","geometry":{"type":"Point","coordinates":[106.59268,29.75976]},"properties":{"id":24873,"klass":"Station","name":"Huashigou","opening":2023,"buildstart":2016,"lines":[{"line":"Line 9","line_url_name":"3075-line-9","system":"Chongqing Rail Transit"}]}}, {"type":"Feature","geometry":{"type":"Point","coordinates":[106.56876,29.72587]},"properties":{"id":35404,"klass":"Station","name":"Zhongxin Gongyuan Xi (Central Park West)","opening":2023,"buildstart":2019,"lines":[{"line":"Line 5","line_url_name":"2321-line-5","system":"Chongqing Rail Transit"}]}}, {"type":"Feature","geometry":{"type":"Point","coordinates":[106.56582,29.75603]},"properties":{"id":35405,"klass":"Station","name":"Yuegangbeilu","opening":2023,"buildstart":2019,"lines":[{"line":"Line 5","line_url_name":"2321-line-5","system":"Chongqing Rail Transit"}]}}, {"type":"Feature","geometry":{"type":"Point","coordinates":[106.56576,29.74664]},"properties":{"id":35572,"klass":"Station","name":"Yuegang Ave.","opening":2023,"buildstart":2019,"lines":[{"line":"Line 5","line_url_name":"2321-line-5","system":"Chongqing Rail Transit"}]}}, {"type":"Feature","geometry":{"type":"Point","coordinates":[106.56741,29.73634]},"properties":{"id":35573,"klass":"Station","name":"Chunxuan Ave.","opening":2023,"buildstart":2019,"lines":[{"line":"Line 5","line_url_name":"2321-line-5","system":"Chongqing Rail Transit"}]}}, {"type":"Feature","geometry":{"type":"Point","coordinates":[106.56726,29.71341]},"properties":{"id":35574,"klass":"Station","name":"Lujiagou","opening":2023,"buildstart":2019,"lines":[{"line":"Line 5","line_url_name":"2321-line-5","system":"Chongqing Rail Transit"}]}}, {"type":"Feature","geometry":{"type":"Point","coordinates":[106.56545,29.70601]},"properties":{"id":35575,"klass":"Station","name":"Ganyue Ave.","opening":2023,"buildstart":2019,"lines":[{"line":"Line 5","line_url_name":"2321-line-5","system":"Chongqing Rail Transit"}]}}, {"type":"Feature","geometry":{"type":"Point","coordinates":[106.56658,29.6923]},"properties":{"id":35576,"klass":"Station","name":"Yuhegou","buildstart":2019,"lines":[{"line":"Line 5","line_url_name":"2321-line-5","system":"Chongqing Rail Transit"}]}}, {"type":"Feature","geometry":{"type":"Point","coordinates":[106.47207,29.58323]},"properties":{"id":24815,"klass":"Station","name":"Yudaishan","opening":2018,"buildstart":2013,"lines":[{"line":"Line 0","line_url_name":"3074-line-0","system":"Chongqing Rail Transit"}]}}, {"type":"Feature","geometry":{"type":"Point","coordinates":[106.48974,29.56217]},"properties":{"id":24829,"klass":"Station","name":"Zhongshutuo","opening":2023,"buildstart":2013,"lines":[{"line":"Line 5","line_url_name":"2321-line-5","system":"Chongqing Rail Transit"}]}}, {"type":"Feature","geometry":{"type":"Point","coordinates":[106.49027,29.55331]},"properties":{"id":24850,"klass":"Station","name":"Hongyancun","opening":2022,"buildstart":2016,"lines":[{"line":"Line 9","line_url_name":"3075-line-9","system":"Chongqing Rail Transit"},{"line":"Line 5","line_url_name":"2321-line-5","system":"Chongqing Rail Transit"}]}}, {"type":"Feature","geometry":{"type":"Point","coordinates":[106.55268,29.51949]},"properties":{"id":24797,"klass":"Station","name":"Nanhu","opening":2018,"buildstart":2013,"lines":[{"line":"Line 0","line_url_name":"3074-line-0","system":"Chongqing Rail Transit"},{"line":"Line 10","line_url_name":"2323-line-10","system":"Chongqing Rail Transit"}]}}, {"type":"Feature","geometry":{"type":"Point","coordinates":[106.4946,29.53828]},"properties":{"id":21066,"klass":"Station","name":"Xietaizi","opening":2011,"buildstart":0,"closure":999999,"lines":[{"line":"Line 1","line_url_name":"2311-line-1","system":"Chongqing Rail Transit"}]}}, {"type":"Feature","geometry":{"type":"Point","coordinates":[106.45266,29.59174]},"properties":{"id":36595,"klass":"Station","name":"","buildstart":2021,"lines":[{"line":"Line 4","line_url_name":"2320-line-4","system":"Chongqing Rail Transit"}]}}, {"type":"Feature","geometry":{"type":"Point","coordinates":[106.30356,29.60134]},"properties":{"id":36620,"klass":"Station","name":"","buildstart":2022,"lines":[{"line":"Line 27","line_url_name":"4616-line-27","system":"Chongqing Rail Transit"}]}}, {"type":"Feature","geometry":{"type":"Point","coordinates":[106.32671,29.60119]},"properties":{"id":36621,"klass":"Station","name":"","buildstart":2022,"lines":[{"line":"Line 27","line_url_name":"4616-line-27","system":"Chongqing Rail Transit"}]}}, {"type":"Feature","geometry":{"type":"Point","coordinates":[106.34889,29.60194]},"properties":{"id":36622,"klass":"Station","name":"","buildstart":2022,"lines":[{"line":"Line 27","line_url_name":"4616-line-27","system":"Chongqing Rail Transit"}]}}, {"type":"Feature","geometry":{"type":"Point","coordinates":[106.36749,29.60185]},"properties":{"id":36623,"klass":"Station","name":"","buildstart":2022,"lines":[{"line":"Line 27","line_url_name":"4616-line-27","system":"Chongqing Rail Transit"}]}}, {"type":"Feature","geometry":{"type":"Point","coordinates":[106.44219,29.57945]},"properties":{"id":36624,"klass":"Station","name":"","buildstart":2022,"lines":[{"line":"Line 27","line_url_name":"4616-line-27","system":"Chongqing Rail Transit"}]}}, {"type":"Feature","geometry":{"type":"Point","coordinates":[106.45646,29.55839]},"properties":{"id":36625,"klass":"Station","name":"","buildstart":2022,"lines":[{"line":"Line 27","line_url_name":"4616-line-27","system":"Chongqing Rail Transit"}]}}, {"type":"Feature","geometry":{"type":"Point","coordinates":[106.48193,29.53374]},"properties":{"id":36626,"klass":"Station","name":"","buildstart":2022,"lines":[{"line":"Line 27","line_url_name":"4616-line-27","system":"Chongqing Rail Transit"}]}}, {"type":"Feature","geometry":{"type":"Point","coordinates":[106.50695,29.53818]},"properties":{"id":36627,"klass":"Station","name":"","buildstart":2022,"lines":[{"line":"Line 27","line_url_name":"4616-line-27","system":"Chongqing Rail Transit"}]}}, {"type":"Feature","geometry":{"type":"Point","coordinates":[106.54457,29.55261]},"properties":{"id":36628,"klass":"Station","name":"","buildstart":2022,"lines":[{"line":"Line 27","line_url_name":"4616-line-27","system":"Chongqing Rail Transit"}]}}, {"type":"Feature","geometry":{"type":"Point","coordinates":[106.56983,29.5435]},"properties":{"id":36629,"klass":"Station","name":"","buildstart":2022,"lines":[{"line":"Line 27","line_url_name":"4616-line-27","system":"Chongqing Rail Transit"}]}}, {"type":"Feature","geometry":{"type":"Point","coordinates":[106.56921,29.52711]},"properties":{"id":36630,"klass":"Station","name":"","buildstart":2022,"lines":[{"line":"Line 27","line_url_name":"4616-line-27","system":"Chongqing Rail Transit"}]}}, {"type":"Feature","geometry":{"type":"Point","coordinates":[106.63852,29.49769]},"properties":{"id":36631,"klass":"Station","name":"","buildstart":2022,"lines":[{"line":"Line 27","line_url_name":"4616-line-27","system":"Chongqing Rail Transit"}]}}, {"type":"Feature","geometry":{"type":"Point","coordinates":[106.21557,29.62714]},"properties":{"id":36632,"klass":"Station","name":"Daishan Avenue","buildstart":2019,"lines":[{"line":"Bitong line","line_url_name":"4615-bitong-line","system":"Chongqing Rail Transit"}]}}, {"type":"Feature","geometry":{"type":"Point","coordinates":[106.20681,29.65186]},"properties":{"id":36633,"klass":"Station","name":"","buildstart":2019,"lines":[{"line":"Bitong line","line_url_name":"4615-bitong-line","system":"Chongqing Rail Transit"}]}}, {"type":"Feature","geometry":{"type":"Point","coordinates":[106.20755,29.70417]},"properties":{"id":36634,"klass":"Station","name":"Qinglong Lake","buildstart":2019,"lines":[{"line":"Bitong line","line_url_name":"4615-bitong-line","system":"Chongqing Rail Transit"}]}}, {"type":"Feature","geometry":{"type":"Point","coordinates":[106.21596,29.72563]},"properties":{"id":36635,"klass":"Station","name":"Main Road","buildstart":2019,"lines":[{"line":"Bitong line","line_url_name":"4615-bitong-line","system":"Chongqing Rail Transit"}]}}, {"type":"Feature","geometry":{"type":"Point","coordinates":[106.14541,29.7921]},"properties":{"id":36636,"klass":"Station","name":"Pulu","buildstart":2019,"lines":[{"line":"Bitong line","line_url_name":"4615-bitong-line","system":"Chongqing Rail Transit"}]}}, {"type":"Feature","geometry":{"type":"Point","coordinates":[106.10627,29.81877]},"properties":{"id":36637,"klass":"Station","name":"Tongliang New Town","buildstart":2019,"lines":[{"line":"Bitong line","line_url_name":"4615-bitong-line","system":"Chongqing Rail Transit"}]}}, {"type":"Feature","geometry":{"type":"Point","coordinates":[106.07609,29.83374]},"properties":{"id":36638,"klass":"Station","name":"Tongliang","buildstart":2019,"lines":[{"line":"Bitong line","line_url_name":"4615-bitong-line","system":"Chongqing Rail Transit"}]}}, {"type":"Feature","geometry":{"type":"Point","coordinates":[106.04283,29.82837]},"properties":{"id":36639,"klass":"Station","name":"Tongliang West","buildstart":2019,"lines":[{"line":"Bitong line","line_url_name":"4615-bitong-line","system":"Chongqing Rail Transit"}]}}, {"type":"Feature","geometry":{"type":"Point","coordinates":[106.4573,29.41882]},"properties":{"id":36598,"klass":"Station","name":"Jin'aoshan","opening":2023,"buildstart":2019,"lines":[{"line":"Line 18","line_url_name":"4385-line-18","system":"Chongqing Rail Transit"}]}}, {"type":"Feature","geometry":{"type":"Point","coordinates":[106.43482,29.41071]},"properties":{"id":36600,"klass":"Station","name":"Tiaodeng","opening":2023,"buildstart":2019,"lines":[{"line":"Line 18","line_url_name":"4385-line-18","system":"Chongqing Rail Transit"}]}}, {"type":"Feature","geometry":{"type":"Point","coordinates":[106.47729,29.41904]},"properties":{"id":36599,"klass":"Station","name":"Funiuxi","opening":2023,"buildstart":2019,"lines":[{"line":"Line 18","line_url_name":"4385-line-18","system":"Chongqing Rail Transit"}]}}, {"type":"Feature","geometry":{"type":"Point","coordinates":[106.4315,29.39566]},"properties":{"id":36640,"klass":"Station","name":"Tiaodengnan","opening":2023,"buildstart":2019,"lines":[{"line":"Line 18","line_url_name":"4385-line-18","system":"Chongqing Rail Transit"}]}}, {"type":"Feature","geometry":{"type":"Point","coordinates":[106.48727,29.41843]},"properties":{"id":36641,"klass":"Station","name":"Baijusi","opening":2023,"buildstart":2019,"lines":[{"line":"Line 18","line_url_name":"4385-line-18","system":"Chongqing Rail Transit"}]}}, {"type":"Feature","geometry":{"type":"Point","coordinates":[106.50099,29.4272]},"properties":{"id":36597,"klass":"Station","name":"Qiezixi","opening":2023,"buildstart":2019,"lines":[{"line":"Line 18","line_url_name":"4385-line-18","system":"Chongqing Rail Transit"}]}}, {"type":"Feature","geometry":{"type":"Point","coordinates":[106.51448,29.43588]},"properties":{"id":36596,"klass":"Station","name":"Babinlu Wetland Park","opening":2023,"buildstart":2019,"lines":[{"line":"Line 18","line_url_name":"4385-line-18","system":"Chongqing Rail Transit"}]}}, {"type":"Feature","geometry":{"type":"Point","coordinates":[106.51312,29.45123]},"properties":{"id":36601,"klass":"Station","name":"Huaxi Industrial Park","opening":2023,"buildstart":2019,"lines":[{"line":"Line 18","line_url_name":"4385-line-18","system":"Chongqing Rail Transit"}]}}, {"type":"Feature","geometry":{"type":"Point","coordinates":[106.51684,29.4632]},"properties":{"id":36602,"klass":"Station","name":"Chongqing University of Technology","opening":2023,"buildstart":2019,"lines":[{"line":"Line 18","line_url_name":"4385-line-18","system":"Chongqing Rail Transit"}]}}, {"type":"Feature","geometry":{"type":"Point","coordinates":[106.5239,29.47113]},"properties":{"id":36603,"klass":"Station","name":"Lijiatuo Bridge","opening":2023,"buildstart":2019,"lines":[{"line":"Line 18","line_url_name":"4385-line-18","system":"Chongqing Rail Transit"}]}}, {"type":"Feature","geometry":{"type":"Point","coordinates":[106.53453,29.48571]},"properties":{"id":36604,"klass":"Station","name":"Dianchang","opening":2023,"buildstart":2019,"lines":[{"line":"Line 18","line_url_name":"4385-line-18","system":"Chongqing Rail Transit"}]}}, {"type":"Feature","geometry":{"type":"Point","coordinates":[106.53953,29.49074]},"properties":{"id":36605,"klass":"Station","name":"Sichuan Fine Arts Institute","opening":2023,"buildstart":2019,"lines":[{"line":"Line 18","line_url_name":"4385-line-18","system":"Chongqing Rail Transit"}]}}, {"type":"Feature","geometry":{"type":"Point","coordinates":[106.53386,29.49864]},"properties":{"id":36606,"klass":"Station","name":"Huangjueping","opening":2023,"buildstart":2019,"lines":[{"line":"Line 18","line_url_name":"4385-line-18","system":"Chongqing Rail Transit"}]}}, {"type":"Feature","geometry":{"type":"Point","coordinates":[106.52402,29.50231]},"properties":{"id":36607,"klass":"Station","name":"Tanzikou","opening":2023,"buildstart":2019,"lines":[{"line":"Line 18","line_url_name":"4385-line-18","system":"Chongqing Rail Transit"}]}}, {"type":"Feature","geometry":{"type":"Point","coordinates":[106.51178,29.51088]},"properties":{"id":36608,"klass":"Station","name":"Yangjiaping","opening":2023,"buildstart":2019,"lines":[{"line":"Line 18","line_url_name":"4385-line-18","system":"Chongqing Rail Transit"}]}}, {"type":"Feature","geometry":{"type":"Point","coordinates":[106.50281,29.51831]},"properties":{"id":36609,"klass":"Station","name":"Shipingqiao","opening":2023,"buildstart":2019,"lines":[{"line":"Line 18","line_url_name":"4385-line-18","system":"Chongqing Rail Transit"}]}}, {"type":"Feature","geometry":{"type":"Point","coordinates":[106.49509,29.53914]},"properties":{"id":36642,"klass":"Station","name":"Xietaizi","opening":2023,"buildstart":2019,"lines":[{"line":"Line 18","line_url_name":"4385-line-18","system":"Chongqing Rail Transit"}]}}]}