fullSpell,desc,count,countStr,countUnit,price,priceStr,priceUnit,border,bubbleDesc,icon,entityId,entityType,id,name,longitude,latitude,imageType,selected
c3620036033014411,1.5万(4套),4,4套,套,15017,1.5万,元,"106.247807,29.256971;106.248302,29.257204;106.248495,29.256837;106.247929,29.256723",华远春风度,,3620036033014411,resblock,3620036033014411,华远春风度,106.24411774888,29.256583142262,30002,False
c3620022687513696,0.83万(12套),12,12套,套,8275,0.83万,元,"106.299366,29.259354;106.300776,29.257779;106.302312,29.257731;106.302555,29.259094;106.300444,29.260607;106.299698,29.261001;106.299375,29.260788;106.300327,29.259969;106.299761,29.259543",祥豪维多利亚港...,,3620022687513696,resblock,3620022687513696,祥豪维多利亚港湾,106.30141929113,29.258155629045,30002,False
c36000000072359,(4套),4,4套,套,0,,元,,长江著山合,,36000000072359,resblock,36000000072359,长江著山合,106.29322082978,29.262514576976,30002,False
c3620049462908170,0.38万(2套),2,2套,套,3755,0.38万,元,,金科集美城,,3620049462908170,resblock,3620049462908170,金科集美城,106.223943,29.273866,30002,False
c3616950659920436,0.44万(19套),19,19套,套,4430,0.44万,元,"106.237787,29.276348;106.23626,29.276443;106.236472,29.276723;106.236495,29.277483;106.23252,29.27718;106.232433,29.275718;106.234068,29.272961;106.235613,29.273639;106.235559,29.272331;106.237589,29.272504",荧鸿城,,3616950659920436,resblock,3616950659920436,荧鸿城,106.235775,29.274678,30002,False
c3620041686135069,0.48万(13套),13,13套,套,4809,0.48万,元,,佳兆业篆山熙园,,3620041686135069,resblock,3620041686135069,佳兆业篆山熙园,106.244613,29.264151,30002,False
c3620041340105358,0.53万(9套),9,9套,套,5326,0.53万,元,,财信中梁华府,,3620041340105358,resblock,3620041340105358,财信中梁华府,106.240901,29.265195,30002,False
c3620024283139937,0.42万(1套),1,1套,套,4222,0.42万,元,"106.232945,29.270682;106.232837,29.271784;106.23573,29.274462;106.236624,29.277498;106.237854,29.277522;106.237832,29.276454;106.23758,29.272603",南华公租房,,3620024283139937,resblock,3620024283139937,南华公租房,106.23515955644,29.273978926844,30002,False
c3611100431564,0.6万(52套),52,52套,套,5951,0.6万,元,"106.261915,29.27536;106.262796,29.275502;106.263875,29.275573;106.263668,29.276947;106.263395,29.277727;106.264242,29.278393;106.265068,29.277794;106.266772,29.275967;106.269036,29.275021;106.268856,29.270721;106.26706,29.26965;106.2632,29.272741;106.262365,29.273898",金科世界城(江...,,3611100431564,resblock,3611100431564,金科世界城(江津),106.263505,29.274639,30002,False
c3611063890280,0.58万(11套),11,11套,套,5799,0.58万,元,"106.245351,29.264584;106.246011,29.264178;106.245638,29.26345;106.24973,29.261886;106.251383,29.263296;106.248248,29.265234;106.246945,29.266431;106.246945,29.266431;106.246945,29.266431;106.246119,29.265675",御江山浔院,,3611063890280,resblock,3611063890280,御江山浔院,106.248077,29.263879,30002,False
c3611100126061,0.44万(5套),5,5套,套,4368,0.44万,元,"106.256265,29.277911;106.257114,29.278305;106.257536,29.277695;106.256728,29.27723",津科苑,,3611100126061,resblock,3611100126061,津科苑,106.25704548629,29.277941963486,30002,False
c3611100126927,0.44万(5套),5,5套,套,4364,0.44万,元,"106.259247,29.274237;106.26055,29.274584;106.260878,29.273721;106.259876,29.273505",江岸丽都,,3611100126927,resblock,3611100126927,江岸丽都,106.260146,29.274036,30002,False
c3611100127280,0.41万(5套),5,5套,套,4126,0.41万,元,"106.260069,29.273276;106.262117,29.273654;106.262216,29.273119;106.261004,29.272307",金桥港湾,,3611100127280,resblock,3611100127280,金桥港湾,106.261219,29.273064,30002,False
c3611100121701,0.49万(4套),4,4套,套,4942,0.49万,元,"106.262571,29.278305;106.262886,29.278211;106.263345,29.278152;106.263523,29.277974;106.262939,29.27749;106.262728,29.27762;106.262737,29.277978;106.262463,29.278152",文广新村,,3611100121701,resblock,3611100121701,文广新村,106.263007,29.277951,30002,False
c3611100126265,0.46万(4套),4,4套,套,4550,0.46万,元,"106.254491,29.281676;106.255528,29.281877;106.256117,29.280026;106.255178,29.279774;106.254697,29.280853",聚英花园,,3611100126265,resblock,3611100126265,聚英花园,106.25529,29.280857,30002,False
c3611100423116,0.32万(4套),4,4套,套,3244,0.32万,元,"106.258465,29.275087;106.259103,29.274323;106.261663,29.275024;106.260765,29.276867;106.260351,29.276717;106.260689,29.275856",荣华,,3611100423116,resblock,3611100423116,荣华,106.26072,29.27537,30002,False
c3611100125387,0.43万(3套),3,3套,套,4311,0.43万,元,"106.257406,29.280184;106.257644,29.279695;106.258668,29.279896;106.258632,29.280278;106.257999,29.280239",渝津花园,,3611100125387,resblock,3611100125387,渝津花园,106.258107,29.28005,30002,False
c3611100126150,0.45万(3套),3,3套,套,4512,0.45万,元,"106.257433,29.276403;106.25821,29.276754;106.258704,29.276041;106.25794,29.275753",金沙海岸,,3611100126150,resblock,3611100126150,金沙海岸,106.25808,29.276214,30002,False
c3611100117872,0.52万(2套),2,2套,套,5151,0.52万,元,"106.263561,29.279479;106.264172,29.279381;106.263983,29.27844;106.263439,29.278487",津都花园,,3611100117872,resblock,3611100117872,津都花园,106.263799,29.278979,30002,False
c3611100119771,0.29万(2套),2,2套,套,2888,0.29万,元,"106.262279,29.280574;106.263309,29.282039;106.26361,29.281874;106.264499,29.280929;106.264149,29.27955;106.26401,29.279507;106.262643,29.279909",紫荆花园,,3611100119771,resblock,3611100119771,紫荆花园,106.26343,29.280629,30002,False
c3611100862085,0.34万(2套),2,2套,套,3421,0.34万,元,"106.26383,29.281858;106.264118,29.282256;106.265375,29.281634;106.264965,29.280814",金桥花园,,3611100862085,resblock,3611100862085,金桥花园,106.264616,29.28159,30002,False
c3611100123972,(1套),1,1套,套,0,,元,"106.261089,29.279479;106.260977,29.279121;106.260527,29.279042;106.260563,29.279672;106.26112,29.279661",人大家属院,,3611100123972,resblock,3611100123972,人大家属院,106.26079267833,29.279266042128,30002,False
c3611100125041,0.39万(1套),1,1套,套,3906,0.39万,元,"106.260619,29.274632;106.261724,29.274919;106.262078,29.273864;106.260938,29.273655;106.260771,29.274206",津源居,,3611100125041,resblock,3611100125041,津源居,106.261387,29.274289,30002,False
c3611100126390,0.43万(1套),1,1套,套,4323,0.43万,元,"106.256058,29.278995;106.256602,29.279152;106.257029,29.278408;106.256741,29.278318;106.256476,29.278172;106.25631,29.278487",江岸丽水,,3611100126390,resblock,3611100126390,江岸丽水,106.256552,29.278526,30002,False
c3611100421900,0.39万(1套),1,1套,套,3945,0.39万,元,"106.256633,29.279416;106.257496,29.279695;106.257779,29.279258;106.256907,29.278935",吉祥鑫座,,3611100421900,resblock,3611100421900,吉祥鑫座,106.257159,29.279309,30002,False
c3611100430406,0.28万(1套),1,1套,套,2841,0.28万,元,"106.260303,29.27766;106.259265,29.277365;106.259149,29.277593;106.260164,29.277971",茂园小区,,3611100430406,resblock,3611100430406,茂园小区,106.259651,29.277625,30002,False
c3620027909747326,0.35万(1套),1,1套,套,3453,0.35万,元,"106.261915,29.27627;106.261556,29.276203;106.26143,29.276648;106.26187,29.276802",蜀果花园,,3620027909747326,resblock,3620027909747326,蜀果花园,106.26171,29.276376,30002,False
c3611100113175,0.82万(21套),21,21套,套,8155,0.82万,元,"106.278585,29.279684;106.279681,29.278802;106.278247,29.277494;106.277483,29.277967;106.276621,29.277258;106.276342,29.277494;106.274833,29.276376;106.274923,29.275572;106.272965,29.274785;106.271994,29.274942;106.271689,29.275163;106.273557,29.280077;106.275342,29.278786;106.276097,29.279023;106.27774,29.28033",雍山郡,,3611100113175,resblock,3611100113175,雍山郡,106.27451,29.277116,30002,False
c3611100534301,0.65万(18套),18,18套,套,6455,0.65万,元,"106.281786,29.281192;106.283196,29.282696;106.284625,29.281208;106.282954,29.279947",建宇爱上,,3611100534301,resblock,3611100534301,建宇爱上,106.283161,29.281102,30002,False
c3611099888816,0.97万(12套),12,12套,套,9699,0.97万,元,"106.277461,29.276254;106.278539,29.277262;106.278916,29.276891;106.27914,29.277049;106.280182,29.275891;106.278601,29.274954;106.27755,29.275765",美天公园王府,,3611099888816,resblock,3611099888816,美天公园王府,106.27876226097,29.276205515452,30002,False
c3611100110968,0.54万(12套),12,12套,套,5402,0.54万,元,"106.283502,29.282972;106.284894,29.284295;106.286484,29.282649;106.284804,29.28146",星韵满庭,,3611100110968,resblock,3611100110968,星韵满庭,106.284974231,29.282849650924,30002,False
c3620033161013500,0.73万(6套),6,6套,套,7341,0.73万,元,"106.284791,29.28044;106.284454,29.280586;106.283353,29.279511;106.282945,29.2787;106.283331,29.278704;106.283506,29.279436",幸福佳苑,,3620033161013500,resblock,3620033161013500,幸福佳苑,106.284101,29.280038,30002,False
c3611100114593,0.6万(5套),5,5套,套,5984,0.6万,元,"106.281382,29.276242;106.282262,29.275184;106.279657,29.273828;106.279307,29.27393;106.27892,29.274631;106.279001,29.274962",加洲国际,,3611100114593,resblock,3611100114593,加洲国际,106.281911,29.275511,30002,False
c3611100116748,0.61万(3套),3,3套,套,6096,0.61万,元,"106.28188,29.282999;106.282621,29.282405;106.283052,29.282909;106.282397,29.283448",阳光青城,,3611100116748,resblock,3611100116748,阳光青城,106.28229946034,29.282885281205,30002,False
c3616929659848740,0.66万(3套),3,3套,套,6624,0.66万,元,"106.280214,29.27326;106.283008,29.273757;106.283605,29.27356;106.283681,29.273312;106.281121,29.272087;106.280349,29.272772",四季花都,,3616929659848740,resblock,3616929659848740,四季花都,106.281885,29.27304,30002,False
c3611100115312,0.45万(2套),2,2套,套,4533,0.45万,元,"106.281822,29.281606;106.281202,29.281228;106.280434,29.28183;106.280268,29.281653;106.279949,29.281811;106.280191,29.282012;106.281211,29.281385;106.281602,29.281775",凤凰小区,,3611100115312,resblock,3611100115312,凤凰小区,106.28140564756,29.281829669593,30002,False
c3611100843013,0.4万(2套),2,2套,套,3981,0.4万,元,"106.273804,29.283452;106.273077,29.282846;106.272466,29.283232;106.271487,29.282082;106.272735,29.281019;106.273885,29.281326;106.274918,29.282539",骑龙山庄(江津...,,3611100843013,resblock,3611100843013,骑龙山庄(江津),106.273364,29.282357,30002,False
c3620029135871257,0.53万(2套),2,2套,套,5314,0.53万,元,"106.2651,29.278613;106.264871,29.278688;106.264476,29.278743;106.26417,29.27881;106.264449,29.279562;106.265356,29.279487;106.266146,29.279306;106.266061,29.278822;106.265513,29.278578;106.265527,29.278578;106.265383,29.278585;106.265248,29.278589",几江大院,,3620029135871257,resblock,3620029135871257,几江大院,106.265276,29.279239,30002,False
c3611100115350,0.5万(1套),1,1套,套,4994,0.5万,元,"106.27945,29.281341;106.279801,29.281653;106.280982,29.280747;106.280609,29.280381",幸福园,,3611100115350,resblock,3611100115350,幸福园,106.28005165202,29.281007069113,30002,False
c3611100431347,0.62万(1套),1,1套,套,6230,0.62万,元,"106.283654,29.27059;106.284607,29.269558;106.286021,29.270338;106.285002,29.271504",鼎山丽景,,3611100431347,resblock,3611100431347,鼎山丽景,106.284926,29.270772,30002,False
c3616204841890068,1万(1套),1,1套,套,10086,1万,元,"106.27945,29.276865;106.277717,29.275636;106.277151,29.276581;106.278004,29.277605;106.278013,29.277629;106.278804,29.277447;106.278795,29.277463;106.279109,29.277132",伴山丽苑,,3616204841890068,resblock,3616204841890068,伴山丽苑,106.277842,29.277018,30002,False
c3616661714318111,0.58万(1套),1,1套,套,5808,0.58万,元,"106.282442,29.272559;106.283744,29.273245;106.284292,29.272457;106.282981,29.271819",明月天意,,3616661714318111,resblock,3616661714318111,明月天意,106.28329994486,29.272738851124,30002,False
c366965971135930,0.46万(1套),1,1套,套,4611,0.46万,元,"106.277079,29.281802;106.277874,29.282539;106.278534,29.28192;106.277869,29.281267",东方佳苑,,366965971135930,resblock,366965971135930,东方佳苑,106.277878,29.281869,30002,False
c3615369577181708,0.63万(45套),45,45套,套,6320,0.63万,元,"106.29161,29.268669;106.291997,29.267141;106.292922,29.26733;106.293371,29.26618;106.296183,29.267062;106.295239,29.269575",恒通津都海岸,,3615369577181708,resblock,3615369577181708,恒通津都海岸,106.29653337432,29.264526064185,30002,False
c3620035009227995,0.58万(35套),35,35套,套,5827,0.58万,元,"106.291726,29.274324;106.292287,29.274415;106.292768,29.273749;106.291901,29.273592",裕城长江著,,3620035009227995,resblock,3620035009227995,裕城长江著,106.29724754854,29.26323590371,30002,False
c3611100111327,0.57万(24套),24,24套,套,5696,0.57万,元,"106.285487,29.281105;106.28705,29.282216;106.288469,29.280853;106.286682,29.279806",锦绣花园,,3611100111327,resblock,3611100111327,锦绣花园,106.28693664055,29.281169095,30002,False
c3611100116331,0.63万(15套),15,15套,套,6328,0.63万,元,"106.28837,29.277423;106.29049,29.278258;106.291712,29.276462;106.290311,29.276187;106.28908,29.276423",西西里,,3611100116331,resblock,3611100116331,西西里,106.29002,29.277065,30002,False
c3611100426093,0.52万(15套),15,15套,套,5229,0.52万,元,"106.287005,29.279506;106.288631,29.280688;106.290437,29.278372;106.288352,29.277514;106.287939,29.278427",沁园春,,3611100426093,resblock,3611100426093,沁园春,106.288882,29.278868,30002,False
c3611100115449,0.51万(14套),14,14套,套,5121,0.51万,元,"106.284741,29.278081;106.286798,29.279372;106.287544,29.278293;106.288317,29.276206;106.28767,29.27571;106.287418,29.275371;106.286852,29.275088;106.286174,29.276652;106.286695,29.276762;106.286439,29.277562;106.286053,29.277782;106.285756,29.277692;106.285487,29.277475",星河奥韵,,3611100115449,resblock,3611100115449,星河奥韵,106.28692695681,29.277188914067,30002,False
c3611100110830,0.57万(12套),12,12套,套,5742,0.57万,元,"106.287854,29.281865;106.288712,29.281019;106.290145,29.281999;106.289287,29.282936;106.289282,29.282936",锦江半岛,,3611100110830,resblock,3611100110830,锦江半岛,106.28858718824,29.281575984088,30002,False
c3611100109557,0.66万(10套),10,10套,套,6577,0.66万,元,"106.292498,29.272871;106.29381,29.273308;106.295148,29.269842;106.293567,29.269519",金江港湾,,3611100109557,resblock,3611100109557,金江港湾,106.293805,29.271449,30002,False
c3611100110375,0.58万(8套),8,8套,套,5758,0.58万,元,"106.290639,29.278376;106.291914,29.278927;106.292663,29.276686;106.291972,29.276457",东江美景,,3611100110375,resblock,3611100110375,东江美景,106.2916802113,29.277970145248,30002,False
c3611100110085,0.54万(7套),7,7套,套,5377,0.54万,元,"106.28882,29.280822;106.290338,29.281767;106.29129,29.280341;106.289817,29.279554",碧水龙泉,,3611100110085,resblock,3611100110085,碧水龙泉,106.28985383994,29.280657442082,30002,False
c3620053765894565,0.57万(7套),7,7套,套,5699,0.57万,元,,琨洲华府,,3620053765894565,resblock,3620053765894565,琨洲华府,106.287864,29.267844,30002,False
c3620037413453209,0.56万(6套),6,6套,套,5634,0.56万,元,"106.290284,29.268468;106.291263,29.26861;106.291559,29.267444;106.290526,29.266523;106.290014,29.266822;106.290562,29.267783",锦绣华城,,3620037413453209,resblock,3620037413453209,锦绣华城,106.290979,29.268339,30002,False
c3611100110526,0.62万(4套),4,4套,套,6207,0.62万,元,"106.289898,29.279451;106.291348,29.280282;106.291577,29.279928;106.291919,29.278983;106.290576,29.278502",江畔如歌,,3611100110526,resblock,3611100110526,江畔如歌,106.29101841039,29.279250455317,30002,False
c3620030451351700,0.48万(3套),3,3套,套,4805,0.48万,元,"106.289916,29.266231;106.287921,29.26516;106.286646,29.266767;106.288227,29.267822",荧鸿艾坪山1号,,3620030451351700,resblock,3620030451351700,荧鸿艾坪山1号,106.288049,29.266683,30002,False
c3611100116683,0.66万(1套),1,1套,套,6620,0.66万,元,"106.286259,29.270496;106.287427,29.270787;106.288586,29.268842;106.287787,29.26859",魅力晶城,,3611100116683,resblock,3611100116683,魅力晶城,106.28773169448,29.269880394834,30002,False
c3620033689731779,0.6万(15套),15,15套,套,5965,0.6万,元,"106.476691,29.280141;106.471158,29.27781;106.473781,29.266247;106.488046,29.277621;106.487758,29.277558",恒大国际文化城,,3620033689731779,resblock,3620033689731779,恒大国际文化城,106.477926,29.273886,30002,False
c3620033924784051,0.5万(11套),11,11套,套,5029,0.5万,元,"106.58429,29.280936;106.584991,29.280354;106.585162,29.281236",威尼斯印象,,3620033924784051,resblock,3620033924784051,威尼斯印象,106.584727,29.280735,30002,False
c3611100124249,0.59万(7套),7,7套,套,5935,0.59万,元,"106.263981,29.288263;106.265216,29.288917;106.264686,29.28998;106.263028,29.28946",迷你星座,,3611100124249,resblock,3611100124249,迷你星座,106.264269,29.288853,30002,False
c3611100560590,0.45万(5套),5,5套,套,4514,0.45万,元,"106.25931,29.291344;106.258924,29.291616;106.258771,29.291852;106.258578,29.291714;106.258255,29.292076;106.258708,29.291974;106.258677,29.292246;106.258569,29.292305;106.258637,29.292395;106.258452,29.292529;106.258129,29.292238;106.257792,29.292344;106.257415,29.292856;106.257478,29.292927;106.257985,29.292403;106.25865,29.292825;106.258767,29.29273;106.258452,29.292529;106.258637,29.292395;106.258749,29.292328;106.258677,29.292246;106.258708,29.291978;106.258771,29.291852;106.258924,29.291616;106.25931,29.292041;106.259467,29.291931;106.259171,29.291608;106.2594,29.291458",麻纱市,,3611100560590,resblock,3611100560590,麻纱市,106.259013,29.291598,30002,False
c3611100500575,0.56万(4套),4,4套,套,5606,0.56万,元,"106.262288,29.295297;106.262171,29.295348;106.26258,29.29564;106.262706,29.295593",世豪大厦,,3611100500575,resblock,3611100500575,世豪大厦,106.262405,29.295447,30002,False
c3611100501998,0.5万(4套),4,4套,套,4962,0.5万,元,"106.254015,29.28574;106.255088,29.28572;106.255039,29.284787;106.254006,29.284799",锦江映象,,3611100501998,resblock,3611100501998,锦江映象,106.254446,29.285283,30002,False
c3611100122990,0.46万(2套),2,2套,套,4580,0.46万,元,"106.262435,29.289252;106.262903,29.289437;106.263316,29.288866;106.263096,29.288744;106.262912,29.288984;106.26266,29.288889",金星大厦,,3611100122990,resblock,3611100122990,金星大厦,106.262844,29.289114,30002,False
c3611100123033,0.42万(2套),2,2套,套,4157,0.42万,元,"106.256701,29.290202;106.256903,29.29049;106.258111,29.289954;106.257981,29.289643",玫瑰园,,3611100123033,resblock,3611100123033,玫瑰园,106.257226,29.290005,30002,False
c3611100125541,0.39万(2套),2,2套,套,3850,0.39万,元,"106.25746,29.284028;106.258358,29.284083;106.258448,29.282468;106.257653,29.282437;106.255591,29.281972;106.255111,29.282996;106.255187,29.283354",西江苑,,3611100125541,resblock,3611100125541,西江苑,106.25674625772,29.283012355859,30002,False
c3611100543928,0.38万(2套),2,2套,套,3755,0.38万,元,"106.254217,29.287929;106.255299,29.287819;106.255075,29.287024;106.254118,29.287173",滨江怡苑,,3611100543928,resblock,3611100543928,滨江怡苑,106.254715,29.287484,30002,False
c3611100557087,0.44万(2套),2,2套,套,4389,0.44万,元,"106.263936,29.288102;106.264308,29.287692;106.263326,29.286316;106.263056,29.286489;106.263061,29.286489;106.263061,29.286477;106.263074,29.286493;106.262293,29.287087;106.261529,29.28771;106.262005,29.288017;106.26165,29.287804;106.260649,29.288241;106.261093,29.288615;106.261704,29.288914;106.262019,29.288032;106.262423,29.288245;106.261973,29.289074;106.262386,29.289236;106.262647,29.288803;106.262917,29.288903;106.263109,29.28861;106.263383,29.288807;106.263549,29.28859;106.263253,29.288358;106.263564,29.287903",城南,,3611100557087,resblock,3611100557087,城南,106.261919,29.287558,30002,False
c3611100122629,0.48万(1套),1,1套,套,4758,0.48万,元,"106.254495,29.289445;106.25569,29.289083;106.255425,29.288324;106.254832,29.28843;106.254756,29.287981;106.254271,29.288099",满庭芳（江津）,,3611100122629,resblock,3611100122629,满庭芳（江津）,106.254758,29.288775,30002,False
c3611100124062,0.42万(1套),1,1套,套,4152,0.42万,元,"106.26019,29.28694;106.259947,29.286688;106.260913,29.285755;106.260962,29.286062",兰叶小区,,3611100124062,resblock,3611100124062,兰叶小区,106.260387,29.28644,30002,False
c3611100124308,0.39万(1套),1,1套,套,3903,0.39万,元,"106.254587,29.289706;106.254847,29.290403;106.255669,29.290088;106.255409,29.289419",世纪大厦,,3611100124308,resblock,3611100124308,世纪大厦,106.255144,29.289899,30002,False
c3611100124329,0.54万(1套),1,1套,套,5443,0.54万,元,"106.255466,29.288029;106.255915,29.287906;106.256072,29.28841;106.25565,29.288525",八一大厦,,3611100124329,resblock,3611100124329,八一大厦,106.25578837701,29.28819428757,30002,False
c3611100501200,0.47万(1套),1,1套,套,4740,0.47万,元,"106.262032,29.289222;106.261722,29.289548;106.261902,29.289718;106.262171,29.290147;106.261731,29.290564;106.261637,29.290749;106.261394,29.290769;106.261098,29.290478;106.261246,29.290226;106.260653,29.289938;106.260608,29.289485;106.260357,29.28921;106.260011,29.288875;106.260204,29.288792;106.260348,29.28871;106.260721,29.288596;106.261075,29.288828",黄荆街,,3611100501200,resblock,3611100501200,黄荆街,106.261629,29.289222,30002,False
c3611100503395,0.33万(1套),1,1套,套,3255,0.33万,元,"106.261443,29.283857;106.262265,29.283648;106.262135,29.282581;106.261057,29.282534;106.260976,29.281715;106.260634,29.281723;106.260711,29.28251;106.260771,29.283287;106.261319,29.283201",津西花园,,3611100503395,resblock,3611100503395,津西花园,106.261625,29.283043,30002,False
c3611100541074,(1套),1,1套,套,0,,元,"106.264839,29.294915;106.263752,29.294561;106.263407,29.295274;106.264462,29.29562",大同路160号,,3611100541074,resblock,3611100541074,大同路160号,106.264125,29.295045,30002,False
c3616231087485615,0.41万(1套),1,1套,套,4128,0.41万,元,"106.264494,29.28365;106.263824,29.283854;106.263878,29.284496;106.264597,29.284402;106.264485,29.28365;106.263052,29.285847;106.262939,29.285776;106.262683,29.285867;106.26267,29.28604;106.262769,29.286123;106.263097,29.285855;106.263038,29.285851",城南商业街,,3616231087485615,resblock,3616231087485615,城南商业街,106.264165,29.284144,30002,False
c3616414065308043,0.49万(1套),1,1套,套,4914,0.49万,元,"106.261812,29.286249;106.261749,29.285926;106.262086,29.285886;106.262194,29.286036;106.262647,29.285642;106.262827,29.286083;106.26196,29.286666",变电站家属院,,3616414065308043,resblock,3616414065308043,变电站家属院,106.262258,29.286186,30002,False
c3617767178472433,0.34万(1套),1,1套,套,3430,0.34万,元,"106.258466,29.288454;106.258479,29.288249;106.258663,29.288304;106.258646,29.288477",三倒拐,,3617767178472433,resblock,3617767178472433,三倒拐,106.258568,29.288369,30002,False
c3620022235476531,0.55万(1套),1,1套,套,5497,0.55万,元,"106.257788,29.292305;106.257761,29.292218;106.257873,29.292179;106.257985,29.29225",天主教综合楼,,3620022235476531,resblock,3620022235476531,天主教综合楼,106.257872,29.292269,30002,False
c3620039877165935,0.53万(1套),1,1套,套,5252,0.53万,元,,清平巷国土局家...,,3620039877165935,resblock,3620039877165935,清平巷国土局家属院,106.26400686594,29.291534747454,30002,False
c3620046396421586,0.46万(1套),1,1套,套,4602,0.46万,元,,清平巷教委家属...,,3620046396421586,resblock,3620046396421586,清平巷教委家属院,106.2647948111,29.292085386323,30002,False
c367760446501012,0.27万(1套),1,1套,套,2658,0.27万,元,"106.262751,29.293962;106.261987,29.293636;106.262189,29.29338;106.262661,29.292927;106.262859,29.292585;106.26267,29.292376;106.262701,29.292191;106.262989,29.292215;106.262634,29.293399;106.262414,29.293041;106.262495,29.29301;106.262634,29.292903;106.262989,29.293636;106.262755,29.293966;106.262751,29.293903;106.26258,29.292947;106.262998,29.293628;106.262746,29.293935;106.262746,29.293943",天香街,,367760446501012,resblock,367760446501012,天香街,106.262575,29.293528,30002,False
c367891419410701,0.38万(1套),1,1套,套,3791,0.38万,元,"106.25675,29.292132;106.257082,29.291974;106.257518,29.29262;106.257195,29.292726",津辉花园,,367891419410701,resblock,367891419410701,津辉花园,106.257105,29.292344,30002,False
c369770665783060,0.29万(1套),1,1套,套,2918,0.29万,元,"106.258331,29.291505;106.257779,29.290879;106.257073,29.291529;106.2571,29.291683;106.257509,29.291994",斑竹巷街,,369770665783060,resblock,369770665783060,斑竹巷街,106.257594,29.291547,30002,False
c3620031697612615,0.78万(59套),59,59套,套,7790,0.78万,元,"106.281103,29.290592;106.280124,29.289757;106.278184,29.291088;106.279325,29.292002;106.280609,29.29123",中昂新天地,,3620031697612615,resblock,3620031697612615,中昂新天地,106.27791033798,29.288233399317,30002,False
c3611100112251,0.63万(27套),27,27套,套,6294,0.63万,元,"106.274523,29.292061;106.273247,29.292321;106.271729,29.292407;106.271927,29.293919;106.272556,29.295368;106.275359,29.294022;106.274972,29.292927",津城壹号,,3611100112251,resblock,3611100112251,津城壹号,106.27405174073,29.293514686229,30002,False
c3611100117583,0.89万(25套),25,25套,套,8879,0.89万,元,"106.275085,29.285894;106.276621,29.286646;106.279253,29.285571;106.278552,29.285051;106.27724,29.285138;106.276055,29.285429",御景华庭,,3611100117583,resblock,3611100117583,御景华庭,106.27757004262,29.285732587763,30002,False
c3611100536490,0.57万(24套),24,24套,套,5739,0.57万,元,"106.281925,29.286815;106.283803,29.28828;106.286363,29.286051;106.284845,29.284539",半岛明珠（江津...,,3611100536490,resblock,3611100536490,半岛明珠（江津）,106.284074,29.28675,30002,False
c3611100112586,0.69万(20套),20,20套,套,6937,0.69万,元,"106.276261,29.2913;106.275408,29.288465;106.278723,29.286276;106.280016,29.287394;106.279486,29.28804;106.280313,29.288622;106.28016,29.288828;106.27936,29.289411;106.278983,29.289907;106.278175,29.290411;106.277708,29.290757",时代港湾,,3611100112586,resblock,3611100112586,时代港湾,106.277222,29.289327,30002,False
c3611100111627,0.52万(16套),16,16套,套,5155,0.52万,元,"106.27557,29.294029;106.27495,29.292375;106.275372,29.292233;106.275929,29.292588;106.277546,29.292036;106.278821,29.291446;106.279298,29.292005;106.277267,29.293289",祥和佳苑,,3611100111627,resblock,3611100111627,祥和佳苑,106.277708848,29.292274483157,30002,False
c3611100118815,0.69万(15套),15,15套,套,6921,0.69万,元,"106.269493,29.291859;106.26952,29.291505;106.269012,29.291426;106.269578,29.291068;106.269798,29.290469;106.269838,29.290225;106.268936,29.289997;106.26912,29.289646;106.268406,29.289371;106.268832,29.289162;106.269326,29.289162;106.269982,29.289438;106.270966,29.289469;106.271397,29.292111;106.270741,29.29204",云鼎阳光,,3611100118815,resblock,3611100118815,云鼎阳光,106.2704189057,29.290653962355,30002,False
c36000000004684,1.2万(14套),14,14套,套,12237,1.2万,元,,中昂新天地天玺,,36000000004684,resblock,36000000004684,中昂新天地天玺,106.28105186839,29.290868940042,30002,False
c3611100123665,0.68万(14套),14,14套,套,6770,0.68万,元,"106.267831,29.289004;106.268302,29.289205;106.268747,29.289008;106.26921,29.288965;106.269358,29.288768;106.268464,29.287937;106.268455,29.287469;106.267733,29.286772;106.267078,29.287276;106.267067,29.288233;106.267772,29.288575",明月香山,,3611100123665,resblock,3611100123665,明月香山,106.26803735346,29.288423889995,30002,False
c3611100009656,0.55万(13套),13,13套,套,5467,0.55万,元,"106.271949,29.285405;106.275363,29.282491;106.27839,29.284886;106.277088,29.285004;106.27601,29.285264;106.274986,29.28576;106.273486,29.286839;106.27239,29.286106;106.27239,29.286106",水木年华湖上,,3611100009656,resblock,3611100009656,水木年华湖上,106.274671,29.284578,30002,False
c3611100124362,0.47万(9套),9,9套,套,4711,0.47万,元,"106.267891,29.28556;106.268474,29.285859;106.268739,29.286134;106.267527,29.286662;106.267015,29.287111;106.266941,29.288217;106.266662,29.289063;106.266846,29.289708;106.266349,29.28947;106.265916,29.290334;106.264865,29.290059;106.265467,29.288905;106.264286,29.288295;106.265613,29.28754;106.266283,29.287855",云辉丽都,,3611100124362,resblock,3611100124362,云辉丽都,106.26649573678,29.287958060227,30002,False
c3611100125118,0.5万(9套),9,9套,套,5026,0.5万,元,"106.268189,29.284904;106.267232,29.284518;106.267084,29.284983;106.26743,29.285168;106.266707,29.286034;106.267116,29.286208",沿江花园,,3611100125118,resblock,3611100125118,沿江花园,106.267596,29.285015,30002,False
c3611100120845,0.73万(6套),6,6套,套,7318,0.73万,元,"106.273441,29.287185;106.274159,29.286508;106.274941,29.286024;106.275606,29.286933;106.274617,29.287752",朗苑,,3611100120845,resblock,3611100120845,朗苑,106.274555,29.286921,30002,False
c3611100112166,0.53万(5套),5,5套,套,5256,0.53万,元,"106.283362,29.284217;106.282895,29.283784;106.282639,29.284059;106.283003,29.28439",丽景东城,,3611100112166,resblock,3611100112166,丽景东城,106.28297487484,29.284351510415,30002,False
c3611100118194,0.55万(5套),5,5套,套,5481,0.55万,元,"106.271267,29.28917;106.272232,29.289221;106.272309,29.288705;106.27261,29.288012;106.273189,29.28728;106.273324,29.286929;106.2723,29.286244;106.272183,29.286107;106.271675,29.286161;106.271069,29.286209;106.271208,29.287965",水木年华青木苑,,3611100118194,resblock,3611100118194,水木年华青木苑,106.27219006514,29.287542944482,30002,False
c3611100844825,0.39万(5套),5,5套,套,3893,0.39万,元,"106.266559,29.284062;106.267202,29.282995;106.268486,29.283499;106.267929,29.284601",生活林,,3611100844825,resblock,3611100844825,生活林,106.267557,29.283771,30002,False
c3611100110669,0.57万(4套),4,4套,套,5726,0.57万,元,"106.272704,29.294722;106.272969,29.295214;106.274227,29.294643;106.273962,29.294155",水映康城,,3611100110669,resblock,3611100110669,水映康城,106.27347591068,29.294595407376,30002,False
c367918263217834,0.61万(4套),4,4套,套,6136,0.61万,元,"106.280385,29.284421;106.280636,29.284708;106.281166,29.284322;106.280874,29.283996;106.28038,29.284319",香林华府(江津...,,367918263217834,resblock,367918263217834,香林华府(江津),106.280735,29.284393,30002,False
c3611100109968,0.67万(3套),3,3套,套,6747,0.67万,元,"106.281244,29.288718;106.282142,29.289749;106.283346,29.288686;106.281989,29.287678",东和花园,,3611100109968,resblock,3611100109968,东和花园,106.282205,29.288655,30002,False
c3611100119192,0.43万(3套),3,3套,套,4311,0.43万,元,"106.269915,29.287477;106.270633,29.287454;106.270701,29.288072;106.269996,29.28806",津华大厦,,3611100119192,resblock,3611100119192,津华大厦,106.2704192907,29.287769884503,30002,False
c3611100119712,0.62万(3套),3,3套,套,6241,0.62万,元,"106.267962,29.285465;106.269269,29.285847;106.269458,29.286056;106.269642,29.286016;106.269584,29.28552;106.26838,29.285024",津南花园,,3611100119712,resblock,3611100119712,津南花园,106.268838,29.285473,30002,False
c3611100429480,0.45万(3套),3,3套,套,4504,0.45万,元,"106.280079,29.285386;106.281058,29.284693;106.282702,29.286063;106.281795,29.286717",渝西半岛一号还...,,3611100429480,resblock,3611100429480,渝西半岛一号还房,106.281413,29.285665,30002,False
c3611100507563,0.5万(3套),3,3套,套,5035,0.5万,元,"106.267064,29.288395;106.267563,29.288592;106.267401,29.289025;106.26816,29.289324;106.267904,29.289836;106.267328,29.289957;106.267018,29.2898;106.266834,29.289048",渝能华城,,3611100507563,resblock,3611100507563,渝能华城,106.26759645499,29.289396684904,30002,False
c3611100011634,0.38万(2套),2,2套,套,3817,0.38万,元,"106.267756,29.286705;106.268587,29.286296;106.269638,29.286146;106.269755,29.2873;106.268497,29.287418",水木年华燕安庭,,3611100011634,resblock,3611100011634,水木年华燕安庭,106.268906,29.2868,30002,False
c3611100109858,0.48万(2套),2,2套,套,4774,0.48万,元,"106.282814,29.283574;106.283317,29.283157;106.284701,29.28448;106.284189,29.284913",津都鼎苑,,3611100109858,resblock,3611100109858,津都鼎苑,106.283746,29.283984,30002,False
c3611100125060,0.48万(2套),2,2套,套,4768,0.48万,元,"106.267076,29.286268;106.266676,29.286094;106.265899,29.287173;106.266236,29.287398;106.266573,29.286933",云升苑,,3611100125060,resblock,3611100125060,云升苑,106.26658594876,29.286761706854,30002,False
c3610046687163212,0.45万(1套),1,1套,套,4491,0.45万,元,"106.265585,29.293021;106.265688,29.292852;106.266232,29.293073;106.266088,29.293329;106.265796,29.293301;106.265899,29.293104",南安街军转安居...,,3610046687163212,resblock,3610046687163212,南安街军转安居楼,106.265912,29.293181,30002,False
c3611100110740,0.62万(1套),1,1套,套,6241,0.62万,元,"106.274299,29.294572;106.275444,29.294084;106.275165,29.293458;106.274007,29.294029",玉水湾,,3611100110740,resblock,3611100110740,玉水湾,106.274561,29.294034,30002,False
c3611100115622,(1套),1,1套,套,0,,元,"106.277507,29.283421;106.2781,29.282894;106.278558,29.283283;106.277952,29.283768",家和小区,,3611100115622,resblock,3611100115622,家和小区,106.278023,29.283311,30002,False
c3611100118093,0.48万(1套),1,1套,套,4822,0.48万,元,"106.270535,29.286308;106.269978,29.286355;106.270036,29.28743;106.270606,29.287422",园丁大厦(江津...,,3611100118093,resblock,3611100118093,园丁大厦(江津),106.27032221251,29.286911312019,30002,False
c3611100120867,0.45万(1套),1,1套,套,4508,0.45万,元,"106.269955,29.288209;106.270629,29.28817;106.270692,29.288752;106.270809,29.28891;106.270907,29.288949;106.270889,29.289178;106.270063,29.289083",重齿集资楼,,3611100120867,resblock,3611100120867,重齿集资楼,106.270413,29.288583,30002,False
c3611100122895,0.39万(1套),1,1套,套,3852,0.39万,元,"106.26798,29.296238;106.26894,29.296175;106.268877,29.295293;106.26798,29.295325",东城家园,,3611100122895,resblock,3611100122895,东城家园,106.268488,29.295719,30002,False
c3611100422200,0.43万(1套),1,1套,套,4320,0.43万,元,"106.267795,29.292494;106.268307,29.291324;106.267669,29.290997;106.267584,29.291171;106.267979,29.291403;106.267674,29.29212;106.267584,29.292399",山奇小区,,3611100422200,resblock,3611100422200,山奇小区,106.268022,29.291498,30002,False
c3611100504012,0.48万(1套),1,1套,套,4757,0.48万,元,"106.26651,29.291123;106.266263,29.29097;106.266066,29.290895;106.265949,29.290871;106.265827,29.290812;106.265527,29.290702;106.265369,29.291092;106.264803,29.290887;106.264538,29.2911;106.264264,29.291494;106.264992,29.291844;106.264687,29.292313;106.26479,29.292171;106.264678,29.292321;106.264327,29.292596;106.26479,29.293061;106.265562,29.293588;106.265756,29.293191;106.265733,29.293179;106.265742,29.293167;106.265509,29.293069;106.26563,29.292825;106.265863,29.292285;106.266241,29.291608",奎星广场,,3611100504012,resblock,3611100504012,奎星广场,106.265044,29.292597,30002,False
c3611100111877,0.57万(16套),16,16套,套,5743,0.57万,元,"106.285119,29.2845;106.286493,29.285917;106.28714,29.28546;106.287176,29.284704;106.287553,29.283625;106.286736,29.282885",东城中央,,3611100111877,resblock,3611100111877,东城中央,106.28628813707,29.284318741561,30002,False
c3620031421704478,0.54万(7套),7,7套,套,5443,0.54万,元,"106.334238,29.274517;106.331489,29.27373;106.329657,29.278345;106.333358,29.278818",首创西江阅,,3620031421704478,resblock,3620031421704478,首创西江阅,106.33118341922,29.294013198686,30002,False
c3614578245470481,0.58万(6套),6,6套,套,5823,0.58万,元,"106.345575,29.303215;106.344676,29.302223;106.344173,29.301073;106.343796,29.301034;106.34376,29.303199",西海岸凯悦,,3614578245470481,resblock,3614578245470481,西海岸凯悦,106.344105,29.302749,30002,False
c3615235029414858,0.62万(76套),76,76套,套,6241,0.62万,元,"106.261799,29.316923;106.260253,29.316396;106.25949,29.316419;106.258062,29.318041;106.257747,29.318293;106.258178,29.318576;106.260963,29.318978;106.260945,29.31871;106.261682,29.318742;106.262329,29.317458;106.261718,29.317254",祥瑞城,,3615235029414858,resblock,3615235029414858,祥瑞城,106.25987268515,29.317917104145,30002,False
c36000000007120,0.71万(60套),60,60套,套,7101,0.71万,元,,锦荣府,,36000000007120,resblock,36000000007120,锦荣府,106.26191457064,29.315557115157,30002,False
c3612065720250723,0.68万(45套),45,45套,套,6814,0.68万,元,"106.261619,29.313963;106.263326,29.31103;106.266488,29.311916;106.265374,29.314971",半山府邸,,3612065720250723,resblock,3612065720250723,半山府邸,106.26401812614,29.312501393517,30002,False
c3620042468652092,0.72万(39套),39,39套,套,7210,0.72万,元,,腾龙居公园华府,,3620042468652092,resblock,3620042468652092,腾龙居公园华府,106.25485111339,29.315836921902,30002,False
c3620054979264379,0.91万(27套),27,27套,套,9127,0.91万,元,,昕晖麓台熙著,,3620054979264379,resblock,3620054979264379,昕晖麓台熙著,106.25187930945,29.313818432596,30002,False
c3620036739104957,0.59万(26套),26,26套,套,5941,0.59万,元,"106.264296,29.318655;106.265994,29.319757;106.266587,29.319175;106.265122,29.316758;106.26497,29.317096;106.26497,29.317096",滨利汇金中心,,3620036739104957,resblock,3620036739104957,滨利汇金中心,106.264624,29.318576,30002,False
c3620048404681127,0.89万(17套),17,17套,套,8875,0.89万,元,,御景台,,3620048404681127,resblock,3620048404681127,御景台,106.25868875292,29.316645512739,30002,False
c3620049042376645,0.36万(16套),16,16套,套,3613,0.36万,元,,浒溪小区二期,,3620049042376645,resblock,3620049042376645,浒溪小区二期,106.26132320989,29.320781423666,30002,False
c3620022788244065,0.46万(9套),9,9套,套,4639,0.46万,元,"106.257172,29.319167;106.260236,29.319372;106.259706,29.321978;106.258035,29.321411;106.256948,29.320364;106.256894,29.319592",滨江新城浒溪还...,,3620022788244065,resblock,3620022788244065,滨江新城浒溪还房,106.258481,29.320294,30002,False
c3620029205066890,0.6万(8套),8,8套,套,6024,0.6万,元,"106.267422,29.309073;106.26594,29.308613;106.26536,29.310368;106.265778,29.310443;106.266115,29.309959;106.266919,29.310313",乾和新天汇,,3620029205066890,resblock,3620029205066890,乾和新天汇,106.26258255132,29.305486842608,30002,False
c36000000011877,0.79万(7套),7,7套,套,7899,0.79万,元,,融创晓风澜庭,,36000000011877,resblock,36000000011877,融创晓风澜庭,106.26064476957,29.308989610225,30002,False
c36000000076404,0.74万(1套),1,1套,套,7360,0.74万,元,,腾龙居公园华府...,,36000000076404,resblock,36000000076404,腾龙居公园华府二期,106.25741507042,29.313223653825,30002,False
c3620040854577495,0.73万(58套),58,58套,套,7254,0.73万,元,,锦绣新城（江津...,,3620040854577495,resblock,3620040854577495,锦绣新城（江津）,106.27205953923,29.317764410885,30002,False
c3620055285509087,0.88万(38套),38,38套,套,8809,0.88万,元,,昕晖麓台山舍,,3620055285509087,resblock,3620055285509087,昕晖麓台山舍,106.26855723767,29.311326055003,30002,False
c3616821263305411,0.65万(20套),20,20套,套,6467,0.65万,元,"106.265149,29.308546;106.265724,29.308687;106.264997,29.310577;106.265805,29.310589;106.266964,29.310459;106.26656,29.311624;106.263577,29.310813;106.264529,29.309656",乾和珑湾,,3616821263305411,resblock,3616821263305411,乾和珑湾,106.26551,29.310762,30002,False
c3620040298680255,0.72万(16套),16,16套,套,7190,0.72万,元,,金科滨江中心,,3620040298680255,resblock,3620040298680255,金科滨江中心,106.26776764441,29.319654009513,30002,False
c3620022891023278,0.42万(13套),13,13套,套,4159,0.42万,元,"106.274357,29.314112;106.276495,29.312144;106.27822,29.314931;106.276477,29.315939",海会苑,,3620022891023278,resblock,3620022891023278,海会苑,106.275822,29.314066,30002,False
c3620055303324874,0.66万(12套),12,12套,套,6611,0.66万,元,,石竹盛璟东方,,3620055303324874,resblock,3620055303324874,石竹盛璟东方,106.27403504405,29.320485204554,30002,False
c3611063845420,0.51万(5套),5,5套,套,5087,0.51万,元,"106.338388,29.317175;106.338361,29.317734;106.337229,29.31775;106.336295,29.31912;106.336618,29.319316;106.336313,29.319765;106.33572,29.319584;106.335774,29.318632;106.336241,29.31823;106.336529,29.317734;106.337122,29.317199",北京城建熙城,,3611063845420,resblock,3611063845420,北京城建熙城,106.336517,29.318159,30002,False
c3611099891243,0.7万(1套),1,1套,套,6985,0.7万,元,"106.339215,29.316876;106.343095,29.316766;106.342718,29.319379;106.34155,29.319427;106.34155,29.319899;106.339322,29.319883",首信皇冠假日,,3611099891243,resblock,3611099891243,首信皇冠假日,106.340005,29.317014,30002,False
c3620047984175290,0.57万(2套),2,2套,套,5654,0.57万,元,,芸峰珞璜时代广...,,3620047984175290,resblock,3620047984175290,芸峰珞璜时代广场,106.470605,29.317983,30002,False
c3620048060730201,0.52万(2套),2,2套,套,5181,0.52万,元,,珞璜碧桂园翡翠...,,3620048060730201,resblock,3620048060730201,珞璜碧桂园翡翠蓝山,106.477115,29.318038,30002,False
c3620054223086319,0.43万(1套),1,1套,套,4332,0.43万,元,,富力尚悦居,,3620054223086319,resblock,3620054223086319,富力尚悦居,106.477963,29.316749,30002,False
c3620034437680446,0.64万(114套),114,114套,套,6376,0.64万,元,"106.259306,29.290049;106.259894,29.290045;106.260146,29.28956;106.259548,29.289485",鲁能领秀城1街...,,3620034437680446,resblock,3620034437680446,鲁能领秀城1街区（江津）,106.26321995667,29.332410614741,30002,False
c3620034440864851,0.54万(27套),27,27套,套,5403,0.54万,元,"106.260721,29.329787;106.259382,29.329992;106.259193,29.329228;106.260505,29.32889;106.261592,29.328921;106.261556,29.329409",金瓯滨江国际,,3620034440864851,resblock,3620034440864851,金瓯滨江国际,106.260269,29.329394,30002,False
c36000000062004,1.1万(8套),8,8套,套,11373,1.1万,元,,鲁能领秀城二期,,36000000062004,resblock,36000000062004,鲁能领秀城二期,106.26288446228,29.338466188392,30002,False
c3611588956861309,0.64万(155套),155,155套,套,6430,0.64万,元,"106.268734,29.321009;106.263775,29.320474;106.262463,29.326095;106.267117,29.326536;106.268751,29.325969;106.268177,29.323623",阳光城中央大道,,3611588956861309,resblock,3611588956861309,阳光城中央大道,106.26566394452,29.328527770031,30002,False
c3614799022861804,0.81万(149套),149,149套,套,8145,0.81万,元,"106.262706,29.325956;106.266982,29.326476;106.268707,29.325956;106.26788,29.323311;106.268527,29.320855;106.264143,29.320068;106.263425,29.321579;106.263029,29.323484",金科中央公园城...,,3614799022861804,resblock,3614799022861804,金科中央公园城（江津）,106.26618297786,29.324979001128,30002,False
c36000000001052,0.94万(39套),39,39套,套,9427,0.94万,元,,滨江春城悦府,,36000000001052,resblock,36000000001052,滨江春城悦府,106.27417389891,29.325564579243,30002,False
c3616007239600375,0.74万(21套),21,21套,套,7371,0.74万,元,"106.276513,29.324555;106.277124,29.324736;106.279163,29.32509;106.280079,29.324186;106.279468,29.323906;106.27972,29.323308;106.280335,29.323363;106.280349,29.322973;106.277079,29.32243",城海滨江春城,,3616007239600375,resblock,3616007239600375,城海滨江春城,106.278345,29.32365,30002,False
c3620056835341364,0.85万(21套),21,21套,套,8482,0.85万,元,,滨江春城溪岸,,3620056835341364,resblock,3620056835341364,滨江春城溪岸,106.27784284131,29.325706554903,30002,False
c3620045459903226,0.59万(4套),4,4套,套,5885,0.59万,元,,滨江春城公元,,3620045459903226,resblock,3620045459903226,滨江春城公元,106.279172,29.323544,30002,False
c36000000058946,0.93万(45套),45,45套,套,9332,0.93万,元,,万达西江月,,36000000058946,resblock,36000000058946,万达西江月,106.28654503368,29.325246035965,30002,False
c36000000071883,0.81万(5套),5,5套,套,8119,0.81万,元,,西江月府,,36000000071883,resblock,36000000071883,西江月府,106.29028726514,29.323024318981,30002,False
c3620050570373650,0.77万(7套),7,7套,套,7739,0.77万,元,,恒大时代新城,,3620050570373650,resblock,3620050570373650,恒大时代新城,106.368446,29.342601,30002,False
c3620021507540158,0.9万(82套),82,82套,套,8955,0.9万,元,"106.544316,29.376961;106.543274,29.37187;106.545546,29.371697;106.546957,29.376599;106.545223,29.376718",恒大新城,,3620021507540158,resblock,3620021507540158,恒大新城,106.544278549,29.359423925318,30002,False
c3620034032846521,0.85万(55套),55,55套,套,8531,0.85万,元,"106.526889,29.361034;106.528335,29.360586;106.529907,29.36201;106.529583,29.362663;106.526862,29.361452",金科集美锦湾,,3620034032846521,resblock,3620034032846521,金科集美锦湾,106.528428,29.361287,30002,False
c3620027554034808,0.8万(45套),45,45套,套,7954,0.8万,元,"106.53801,29.355974;106.536429,29.347206;106.539662,29.347065;106.540219,29.352039;106.54304,29.352983;106.542753,29.354526;106.540812,29.355864",和泓文华府,,3620027554034808,resblock,3620027554034808,和泓文华府,106.53901401838,29.349385271771,30002,False
c3620035962992070,0.88万(18套),18,18套,套,8759,0.88万,元,"106.542092,29.355683;106.542802,29.355651;106.542681,29.35527;106.542016,29.355333",大发熙悦書山境,,3620035962992070,resblock,3620035962992070,大发熙悦書山境,106.542312,29.355413,30002,False
c36000000013406,0.52万(1套),1,1套,套,5240,0.52万,元,,华南城巴南华府...,,36000000013406,resblock,36000000013406,华南城巴南华府2期,106.62463482316,29.354694387755,30002,False
c36000000061294,0.68万(63套),63,63套,套,6798,0.68万,元,,华南城巴南华府...,,36000000061294,resblock,36000000061294,华南城巴南华府三期,106.62934111707,29.345672454478,30002,False
c3620023498453341,0.67万(55套),55,55套,套,6662,0.67万,元,"106.626349,29.340524;106.6206,29.337186;106.618408,29.336935;106.619055,29.341106;106.618641,29.344885;106.61812,29.347025;106.619791,29.347199;106.619342,29.34882;106.622127,29.348899;106.623043,29.346065;106.626313,29.340555",华南城巴南华府...,,3620023498453341,resblock,3620023498453341,华南城巴南华府一期,106.62747617313,29.351479900196,30002,False
c36000000077947,(7套),7,7套,套,0,,元,,恒大健康城一期...,,36000000077947,resblock,36000000077947,恒大健康城一期B区,106.26381593229,29.374916207902,30002,False
c36000000077948,(4套),4,4套,套,0,,元,,恒大健康城一期...,,36000000077948,resblock,36000000077948,恒大健康城一期A区,106.26459951145,29.377980628487,30002,False
c3620034642218942,0.89万(26套),26,26套,套,8934,0.89万,元,"106.354364,29.37667;106.354908,29.376659;106.355393,29.376332;106.35515,29.375754;106.354311,29.376249",恒大林溪郡,,3620034642218942,resblock,3620034642218942,恒大林溪郡,106.354926,29.376398,30002,False
c3611100001768,0.7万(14套),14,14套,套,7046,0.7万,元,"106.35489,29.374829;106.355761,29.374632;106.357432,29.374404;106.357657,29.375781;106.35825,29.37619;106.359606,29.375962;106.359669,29.376938;106.355824,29.377001",旭城公园府邸,,3611100001768,resblock,3611100001768,旭城公园府邸,106.357079,29.375765,30002,False
c3611100154405,0.54万(1套),1,1套,套,5389,0.54万,元,"106.353749,29.364072;106.352833,29.364497;106.353327,29.365134;106.354297,29.364733",香河国际,,3611100154405,resblock,3611100154405,香河国际,106.353579,29.364816,30002,False
c3620030269787502,0.68万(76套),76,76套,套,6764,0.68万,元,"106.500026,29.382756;106.502577,29.382811;106.502712,29.381482;106.499631,29.381411;106.499586,29.382749",云水苑,,3620030269787502,resblock,3620030269787502,云水苑,106.501565,29.382469,30002,False
c3611063739068,0.79万(59套),59,59套,套,7925,0.79万,元,"106.503074,29.381281;106.507063,29.381289;106.506946,29.383626;106.50276,29.3835",中昂锦绣,,3611063739068,resblock,3611063739068,中昂锦绣,106.504769,29.382422,30002,False
c3620037056864684,0.78万(44套),44,44套,套,7789,0.78万,元,"106.49304,29.380416;106.490866,29.378386;106.493274,29.377213;106.495376,29.379519",云山晓,,3620037056864684,resblock,3620037056864684,云山晓,106.492316,29.378719,30002,False
c3611057771660,0.54万(3套),3,3套,套,5367,0.54万,元,"106.503097,29.380593;106.503101,29.380207;106.503717,29.380172;106.503973,29.380042;106.504664,29.379865;106.504638,29.380648;106.503739,29.38066;106.503483,29.380538;106.503326,29.380549;106.503308,29.380667",城南画卷,,3611057771660,resblock,3611057771660,城南画卷,106.50395462065,29.38045934345,30002,False
c3620053285646271,0.98万(1套),1,1套,套,9788,0.98万,元,,旭辉上城,,3620053285646271,resblock,3620053285646271,旭辉上城,106.503219,29.372672,30002,False
c3620054419279660,0.88万(1套),1,1套,套,8789,0.88万,元,,融堃北麓云山,,3620054419279660,resblock,3620054419279660,融堃北麓云山,106.489538,29.3747,30002,False
c3620037795230799,0.86万(18套),18,18套,套,8588,0.86万,元,"106.505001,29.37263;106.505347,29.372653;106.505356,29.372256;106.504965,29.372244",旭辉江山青林半,,3620037795230799,resblock,3620037795230799,旭辉江山青林半,106.505228,29.372375,30002,False
c3611099908710,0.7万(6套),6,6套,套,6971,0.7万,元,"106.503968,29.379582;106.503928,29.378515;106.507903,29.378496;106.507934,29.380601;106.504808,29.380931;106.504772,29.379597",典雅依山郡,,3611099908710,resblock,3611099908710,典雅依山郡,106.50583223763,29.37986154946,30002,False
c36000000023733,0.85万(122套),122,122套,套,8512,0.85万,元,,新鸥鹏拉菲公馆...,,36000000023733,resblock,36000000023733,新鸥鹏拉菲公馆D区,106.52721072669,29.37054817792,30002,False
c3620036339429633,1.1万(108套),108,108套,套,10767,1.1万,元,"106.534614,29.373216;106.537821,29.372886;106.537318,29.371257;106.535099,29.370958;106.53421,29.371068;106.534659,29.372114",协信星澜汇三期,,3620036339429633,resblock,3620036339429633,协信星澜汇三期,106.535198,29.372091,30002,False
c3620045118016991,0.75万(76套),76,76套,套,7541,0.75万,元,,拉菲公馆A区,,3620045118016991,resblock,3620045118016991,拉菲公馆A区,106.52766986421,29.367617303828,30002,False
c3611057776340,0.64万(73套),73,73套,套,6418,0.64万,元,"106.529,29.373287;106.531164,29.373145;106.531102,29.375026;106.528955,29.375104",帝豪富达城,,3611057776340,resblock,3611057776340,帝豪富达城,106.53011866139,29.374318838091,30002,False
c3611057778388,0.83万(69套),69,69套,套,8288,0.83万,元,"106.528934,29.379959;106.530712,29.380573;106.530479,29.381108;106.532278,29.381745;106.532386,29.381722;106.532422,29.381572;106.532377,29.381092;106.532332,29.380793;106.532548,29.380557;106.533132,29.380597;106.533689,29.380581;106.533868,29.379975;106.534093,29.379432;106.533874,29.379188;106.532958,29.378968;106.532383,29.379314;106.532365,29.379818;106.531269,29.379346;106.531575,29.378496;106.530119,29.377898",渝开发上城时代,,3611057778388,resblock,3611057778388,渝开发上城时代,106.53044759427,29.379674063845,30002,False
c3612897714449960,1.1万(67套),67,67套,套,10710,1.1万,元,"106.540785,29.375899;106.540745,29.375514;106.541252,29.375289;106.541998,29.374837;106.542191,29.374762;106.543345,29.374585;106.543471,29.374703;106.544105,29.378248;106.543952,29.378433;106.542169,29.377973;106.541782,29.375876",协信星澜汇1期,,3612897714449960,resblock,3612897714449960,协信星澜汇1期,106.54294931753,29.37589234129,30002,False
c3620038806301279,1万(61套),61,61套,套,10229,1万,元,"106.527746,29.368388;106.52771,29.367806;106.528402,29.367743;106.52842,29.367066;106.53028,29.367003;106.530432,29.369238;106.528663,29.369293;106.528465,29.368247",拉菲公馆B区,,3620038806301279,resblock,3620038806301279,拉菲公馆B区,106.52983929823,29.368499678871,30002,False
c3620028081716808,0.94万(44套),44,44套,套,9430,0.94万,元,"106.541495,29.36938;106.540722,29.367074;106.543615,29.366712;106.54348,29.369317",协信敬澜山,,3620028081716808,resblock,3620028081716808,协信敬澜山,106.54485510952,29.370129198089,30002,False
c366963096203056,0.86万(43套),43,43套,套,8570,0.86万,元,"106.527266,29.367647;106.528254,29.367175;106.528236,29.364735;106.521535,29.365685;106.521858,29.372406;106.527949,29.377228;106.528991,29.377134;106.528128,29.37091;106.52935,29.371172;106.529404,29.369819",鸥鹏大道壹号,,366963096203056,resblock,366963096203056,鸥鹏大道壹号,106.52982645817,29.365999762925,30002,False
c3611059340385,0.63万(42套),42,42套,套,6324,0.63万,元,"106.528991,29.376146;106.529027,29.375706;106.530113,29.375729;106.532539,29.374966;106.534479,29.377154;106.534722,29.378334;106.534614,29.378373;106.533985,29.377799;106.533725,29.377728;106.533123,29.377933;106.532575,29.377704;106.532233,29.378169;106.531416,29.377807;106.530536,29.377555;106.530617,29.376689;106.530033,29.376603;106.529646,29.37628",帝豪巴南印象,,3611059340385,resblock,3611059340385,帝豪巴南印象,106.532117,29.376532,30002,False
c3611064032110,1.1万(38套),38,38套,套,10605,1.1万,元,"106.542142,29.374565;106.541917,29.372865;106.537345,29.373259;106.537021,29.37344;106.536905,29.373951;106.537367,29.37449;106.535009,29.374659;106.53536,29.375611;106.537614,29.375391;106.540471,29.375438;106.540624,29.375375",协信星澜汇2期,,3611064032110,resblock,3611064032110,协信星澜汇2期,106.54055405731,29.374421658622,30002,False
c3620032655469807,0.88万(36套),36,36套,套,8808,0.88万,元,"106.529206,29.361404;106.527221,29.36205;106.527796,29.363175;106.528155,29.364426;106.531263,29.364127;106.530922,29.363332;106.530733,29.362789;106.530733,29.362789;106.530733,29.362789",新城金樾府,,3620032655469807,resblock,3620032655469807,新城金樾府,106.528849,29.363152,30002,False
c36000000074911,0.94万(23套),23,23套,套,9441,0.94万,元,,保利大国璟东苑,,36000000074911,resblock,36000000074911,保利大国璟东苑,106.53607145606,29.367594280382,30002,False
c36000000074912,1万(14套),14,14套,套,9950,1万,元,,保利大国璟西苑,,36000000074912,resblock,36000000074912,保利大国璟西苑,106.53463487405,29.368108120577,30002,False
c36000000000531,0.92万(12套),12,12套,套,9172,0.92万,元,,拉菲公馆C区,,36000000000531,resblock,36000000000531,拉菲公馆C区,106.52910391596,29.370132007281,30002,False
c3620031796294287,0.71万(12套),12,12套,套,7120,0.71万,元,"106.545483,29.371784;106.543211,29.372287;106.543705,29.374365;106.546004,29.373924;106.545933,29.372775",康居雅苑,,3620031796294287,resblock,3620031796294287,康居雅苑,106.54476178981,29.373114593822,30002,False
c3611057717411,0.57万(6套),6,6套,套,5660,0.57万,元,"106.532683,29.380817;106.533855,29.380785;106.533788,29.381273;106.534255,29.381281;106.53416,29.381667;106.533082,29.381714;106.533006,29.382198;106.532548,29.382233;106.532656,29.381065",河畔名居B区,,3611057717411,resblock,3611057717411,河畔名居B区,106.53285046704,29.381279274687,30002,False
c3620044761459757,1.2万(6套),6,6套,套,11514,1.2万,元,,泊云府,,3620044761459757,resblock,3620044761459757,泊云府,106.5400114962,29.367204229262,30002,False
c3620038263038554,0.95万(4套),4,4套,套,9541,0.95万,元,"106.534888,29.367283;106.535292,29.366795;106.535584,29.367369",保利大国璟,,3620038263038554,resblock,3620038263038554,保利大国璟,106.535207,29.367145,30002,False
c36000000074110,1.1万(3套),3,3套,套,11475,1.1万,元,,保利大国璟望岳,,36000000074110,resblock,36000000074110,保利大国璟望岳,106.53636505164,29.367702204142,30002,False
c3611059579664,0.68万(2套),2,2套,套,6774,0.68万,元,"106.544329,29.383291;106.544257,29.382284;106.545272,29.382257;106.545241,29.383398",崇仁嘉苑,,3611059579664,resblock,3611059579664,崇仁嘉苑,106.54479418914,29.382828734101,30002,False
c3620052505348849,0.96万(2套),2,2套,套,9633,0.96万,元,,协信星澜汇,,3620052505348849,resblock,3620052505348849,协信星澜汇,106.54232506021,29.376373393991,30002,False
c367105954983947,0.76万(2套),2,2套,套,7609,0.76万,元,"106.534583,29.379751;106.534129,29.379747;106.533976,29.38066;106.534524,29.380711",金悦湾,,367105954983947,resblock,367105954983947,金悦湾,106.53388492385,29.378764236448,30002,False
c3611059899570,0.8万(1套),1,1套,套,8046,0.8万,元,"106.537125,29.379047;106.538504,29.379263;106.538481,29.379389;106.53933,29.379527;106.539375,29.379381;106.539649,29.379432;106.539577,29.379861;106.537003,29.379468",龙井佳园,,3611059899570,resblock,3611059899570,龙井佳园,106.5386744033,29.379534711491,30002,False
c3620044001028235,0.55万(1套),1,1套,套,5512,0.55万,元,,鱼胡路13号,,3620044001028235,resblock,3620044001028235,鱼胡路13号,106.54421805146,29.38292350539,30002,False
c3620034478567742,1万(236套),236,236套,套,9988,1万,元,"106.545304,29.381667;106.545713,29.381911;106.546629,29.381497;106.545722,29.381061",洺悦城龙洲湾,,3620034478567742,resblock,3620034478567742,洺悦城龙洲湾,106.55123224163,29.37909853669,30002,False
c36000000076838,(123套),123,123套,套,0,,元,,洺悦城公园里一...,,36000000076838,resblock,36000000076838,洺悦城公园里一期,106.55123224178,29.379099536732,30002,False
c3620075976776114,1万(90套),90,90套,套,10232,1万,元,,龙湖嘉天下上城,,3620075976776114,resblock,3620075976776114,龙湖嘉天下上城,106.55453,29.379857,30002,False
c36000000076836,(60套),60,60套,套,0,,元,,洺悦城公园里二...,,36000000076836,resblock,36000000076836,洺悦城公园里二期,106.55178824118,29.37721705642,30002,False
c3620075993565427,0.98万(26套),26,26套,套,9780,0.98万,元,,龙湖嘉天下倾宸,,3620075993565427,resblock,3620075993565427,龙湖嘉天下倾宸,106.553559,29.379333,30002,False
c36000000063920,1.1万(19套),19,19套,套,11074,1.1万,元,,龙湖嘉天下揽城,,36000000063920,resblock,36000000063920,龙湖嘉天下揽城,106.54753221867,29.370441389582,30002,False
c3620037675647580,1.2万(19套),19,19套,套,11717,1.2万,元,"106.55276,29.38263;106.552755,29.381317;106.555868,29.38112;106.555661,29.382528",龙湖嘉天下,,3620037675647580,resblock,3620037675647580,龙湖嘉天下,106.55290698088,29.37326072962,30002,False
c36000000076433,(5套),5,5套,套,0,,元,,洺悦城宸悦,,36000000076433,resblock,36000000076433,洺悦城宸悦,106.54991658707,29.374652196959,30002,False
c36000000000965,0.6万(129套),129,129套,套,6035,0.6万,元,,双岛湖御园,,36000000000965,resblock,36000000000965,双岛湖御园,106.26838864001,29.393926570621,30002,False
c36000000003761,0.56万(64套),64,64套,套,5605,0.56万,元,,蓝光鹭湖长岛,,36000000003761,resblock,36000000003761,蓝光鹭湖长岛,106.27092155957,29.388158210768,30002,False
c3620049651656553,0.65万(2套),2,2套,套,6482,0.65万,元,,重庆恒大健康城,,3620049651656553,resblock,3620049651656553,重庆恒大健康城,106.266404,29.383608,30002,False
c3620026744269238,0.37万(3套),3,3套,套,3670,0.37万,元,"106.291685,29.396764;106.290221,29.396127;106.290643,29.395506;106.292098,29.39634",庆福国际广场,,3620026744269238,resblock,3620026744269238,庆福国际广场,106.290823,29.396021,30002,False
c36000000026220,0.32万(1套),1,1套,套,3244,0.32万,元,,津福花园,,36000000026220,resblock,36000000026220,津福花园,106.30187137389,29.393259778625,30002,False
c36000000000090,0.54万(58套),58,58套,套,5377,0.54万,元,,中交康桥,,36000000000090,resblock,36000000000090,中交康桥,106.31202078377,29.402275258216,30002,False
c3611063881970,0.54万(28套),28,28套,套,5437,0.54万,元,"106.31461,29.399447;106.313236,29.398503;106.312616,29.399187;106.310963,29.399368;106.310406,29.399927;106.31408,29.401477",嘉裕国际社区,,3611063881970,resblock,3611063881970,嘉裕国际社区,106.313098,29.399864,30002,False
c36000000040642,0.52万(15套),15,15套,套,5165,0.52万,元,,嘉裕国际社区珑...,,36000000040642,resblock,36000000040642,嘉裕国际社区珑玺,106.30962336885,29.398600047541,30002,False
c3620054299721733,0.71万(3套),3,3套,套,7090,0.71万,元,,景瑞江山御府,,3620054299721733,resblock,3620054299721733,景瑞江山御府,106.344079,29.401812,30002,False
c3620034660043543,0.67万(47套),47,47套,套,6686,0.67万,元,"106.448646,29.441863;106.448965,29.441843;106.44879,29.440971;106.448422,29.440998",弘阳时光澜庭,,3620034660043543,resblock,3620034660043543,弘阳时光澜庭,106.35715788517,29.400810549891,30002,False
c3611063883142,0.55万(14套),14,14套,套,5487,0.55万,元,"106.35701,29.384066;106.356821,29.382933;106.358447,29.38291;106.358456,29.384059",骄杨理想城,,3611063883142,resblock,3611063883142,骄杨理想城,106.357483,29.383476,30002,False
c36000000024777,0.48万(2套),2,2套,套,4758,0.48万,元,,九龙西苑,,36000000024777,resblock,36000000024777,九龙西苑,106.36441267467,29.401171726777,30002,False
c3620046502358038,0.82万(1套),1,1套,套,8200,0.82万,元,,万腾御景城一期,,3620046502358038,resblock,3620046502358038,万腾御景城一期,106.347754,29.402665,30002,False
c3620033417934535,0.64万(31套),31,31套,套,6372,0.64万,元,"106.49976,29.387678;106.499414,29.386584;106.50077,29.385982;106.500739,29.387933",浩立阳光花园,,3620033417934535,resblock,3620033417934535,浩立阳光花园,106.50054775612,29.386916831495,30002,False
c3611057772800,0.62万(4套),4,4套,套,6151,0.62万,元,"106.500856,29.387796;106.500676,29.387457;106.50121,29.387249;106.501323,29.386863;106.501368,29.386686;106.501628,29.386454;106.502392,29.386903;106.502324,29.387528;106.502086,29.387733",凯川大江东岸,,3611057772800,resblock,3611057772800,凯川大江东岸,106.50173860608,29.387455545951,30002,False
c3611063994355,0.96万(87套),87,87套,套,9602,0.96万,元,"106.523421,29.385514;106.522172,29.385372;106.520798,29.385656;106.520214,29.385538;106.518714,29.385884;106.517798,29.384499;106.518992,29.383752;106.521858,29.383791;106.523143,29.383484",鲁能南渝星城,,3611063994355,resblock,3611063994355,鲁能南渝星城,106.520552,29.384664,30002,False
c3611057781422,0.89万(45套),45,45套,套,8940,0.89万,元,"106.515961,29.387351;106.516342,29.387265;106.516315,29.38763;106.515992,29.387666;106.516015,29.387867;106.516086,29.388413;106.516383,29.388394;106.516383,29.38885;106.516095,29.388826;106.516073,29.388327",优跃城,,3611057781422,resblock,3611057781422,优跃城,106.51427104347,29.388630982606,30002,False
c3611059489998,0.67万(41套),41,41套,套,6744,0.67万,元,"106.517259,29.388409;106.517429,29.388126;106.51831,29.387725;106.519208,29.387725;106.520762,29.388433;106.52052,29.389511;106.519433,29.389967;106.518148,29.390172;106.517555,29.389361",浩立半岛康城,,3611059489998,resblock,3611059489998,浩立半岛康城,106.518868068,29.388804168703,30002,False
c3620034634876642,0.74万(32套),32,32套,套,7434,0.74万,元,"106.510845,29.382536;106.512107,29.382489;106.512102,29.38269;106.510921,29.382804",华熙LIVE0...,,3620034634876642,resblock,3620034634876642,华熙LIVE023,106.51024680979,29.38348251479,30002,False
c3620026817665402,0.72万(19套),19,19套,套,7233,0.72万,元,"106.508788,29.398991;106.507925,29.399109;106.507773,29.400887;106.509659,29.400493",荣安明月江南,,3620026817665402,resblock,3620026817665402,荣安明月江南,106.508304,29.399714,30002,False
c3611059451246,0.66万(18套),18,18套,套,6641,0.66万,元,"106.509785,29.400104;106.509556,29.399471;106.509443,29.398739;106.509735,29.397803;106.509893,29.397724;106.510292,29.398106;106.511361,29.399773",香林华府(巴南...,,3611059451246,resblock,3611059451246,香林华府(巴南),106.51040772014,29.399066696181,30002,False
c3611099870342,0.57万(18套),18,18套,套,5717,0.57万,元,"106.502742,29.393519;106.504395,29.393928;106.50541,29.394832;106.506021,29.3958;106.507207,29.395375;106.507,29.39499;106.506623,29.394919;106.505751,29.394368;106.504602,29.393416;106.504251,29.393275;106.502868,29.39307",盛景郦城,,3611099870342,resblock,3611099870342,盛景郦城,106.50505391274,29.393989552466,30002,False
c3611057780048,0.73万(10套),10,10套,套,7313,0.73万,元,"106.521054,29.388173;106.522779,29.388158;106.522788,29.389141;106.521041,29.388984;106.520978,29.388685",蔚蓝海天,,3611057780048,resblock,3611057780048,蔚蓝海天,106.52182144267,29.388772190328,30002,False
c3611099864286,0.62万(10套),10,10套,套,6218,0.62万,元,"106.516904,29.386844;106.517829,29.386828;106.517694,29.387662;106.517317,29.387749;106.517075,29.388433;106.517335,29.389322;106.517569,29.3897;106.5165,29.389684;106.516554,29.387819",皓月港湾,,3611099864286,resblock,3611099864286,皓月港湾,106.51675454185,29.388213098718,30002,False
c3611059476627,0.65万(9套),9,9套,套,6515,0.65万,元,"106.519967,29.390958;106.519931,29.390479;106.520034,29.390105;106.520564,29.389841;106.521081,29.390014;106.521189,29.390223;106.521274,29.390376;106.521288,29.390844;106.52131,29.390888",海天花园,,3611059476627,resblock,3611059476627,海天花园,106.5204708247,29.390329453897,30002,False
c3611063574469,0.79万(7套),7,7套,套,7852,0.79万,元,"106.506708,29.38911;106.506681,29.387489;106.507818,29.387343;106.507557,29.389157",和顺园,,3611063574469,resblock,3611063574469,和顺园,106.506788,29.387572,30002,False
c3611057723687,0.63万(5套),5,5套,套,6344,0.63万,元,"106.516248,29.390097;106.515884,29.390062;106.515839,29.389523;106.515745,29.389373;106.515619,29.389361;106.515633,29.389058;106.516248,29.389188",鱼洞燃气小区,,3611057723687,resblock,3611057723687,鱼洞燃气小区,106.51585977189,29.389496685176,30002,False
c3611059329419,0.43万(5套),5,5套,套,4278,0.43万,元,"106.522361,29.391312;106.520466,29.391517;106.520358,29.391111;106.521831,29.390938;106.523331,29.390754;106.523214,29.388543;106.523794,29.387387;106.524212,29.387214;106.525159,29.388197;106.525694,29.388748;106.526417,29.388437;106.527306,29.388256;106.527481,29.388358;106.527392,29.388402;106.527122,29.388374;106.526112,29.389251;106.523915,29.391006",巴县大道社区,,3611059329419,resblock,3611059329419,巴县大道社区,106.52359241816,29.390760256957,30002,False
c3611059867304,0.68万(5套),5,5套,套,6780,0.68万,元,"106.524126,29.38586;106.524499,29.385833;106.52467,29.386541;106.524966,29.387532;106.524791,29.387509;106.524436,29.386891",乐意苑,,3611059867304,resblock,3611059867304,乐意苑,106.52459387543,29.386654021033,30002,False
c3611099864702,0.47万(5套),5,5套,套,4666,0.47万,元,"106.528613,29.387072;106.522918,29.386206;106.519118,29.386962;106.518813,29.386238;106.522056,29.385538;106.524589,29.385231;106.529332,29.385876",鱼轻路,,3611099864702,resblock,3611099864702,鱼轻路,106.52496028716,29.385378331914,30002,False
c3611099871020,0.51万(5套),5,5套,套,5069,0.51万,元,"106.514016,29.398648;106.51323,29.397728;106.512641,29.396583;106.510099,29.39763;106.511626,29.399785",大江一组团,,3611099871020,resblock,3611099871020,大江一组团,106.51228929033,29.398254497247,30002,False
c3620060947061532,0.81万(5套),5,5套,套,8125,0.81万,元,,东原香郡东,,3620060947061532,resblock,3620060947061532,东原香郡东,106.523719,29.391591,30002,False
c3611059434225,0.7万(4套),4,4套,套,6989,0.7万,元,"106.514038,29.398574;106.51327,29.39761;106.51274,29.396576;106.513526,29.396241;106.514757,29.398232",万友康馨苑,,3611059434225,resblock,3611059434225,万友康馨苑,106.51374181335,29.397318568545,30002,False
c3611059471059,0.38万(4套),4,4套,套,3759,0.38万,元,"106.507907,29.386033;106.506766,29.386002;106.506704,29.384877;106.505096,29.384837;106.505194,29.385695;106.504664,29.385719;106.504638,29.387528;106.506542,29.387363;106.507826,29.387135",广益街,,3611059471059,resblock,3611059471059,广益街,106.5057218953,29.385966238067,30002,False
c3611099870058,0.48万(4套),4,4套,套,4838,0.48万,元,"106.516001,29.397449;106.515597,29.396709;106.515139,29.396709;106.514937,29.39571;106.516033,29.395278;106.516998,29.39492;106.517093,29.395514;106.516307,29.39562;106.516598,29.396733;106.51681,29.396981;106.516908,29.397107",大江滨江花园,,3611099870058,resblock,3611099870058,大江滨江花园,106.51582741356,29.396186477517,30002,False
c36000000056752,0.92万(3套),3,3套,套,9204,0.92万,元,,鲁能南渝星城三...,,36000000056752,resblock,36000000056752,鲁能南渝星城三期,106.5234807458,29.385323477478,30002,False
c3611057704049,0.61万(3套),3,3套,套,6078,0.61万,元,"106.507889,29.401296;106.507885,29.400953;106.509875,29.400647;106.509902,29.400261;106.510998,29.400088;106.511523,29.399887;106.511932,29.40082;106.511146,29.40104;106.50961,29.401244",假日滨江花园C...,,3611057704049,resblock,3611057704049,假日滨江花园C区,106.5101203463,29.400662330974,30002,False
c3611060431085,0.71万(3套),3,3套,套,7094,0.71万,元,"106.511707,29.392563;106.512924,29.392375;106.513144,29.392685;106.511909,29.39324;106.511644,29.392603",玉豪龙庭,,3611060431085,resblock,3611060431085,玉豪龙庭,106.51240533659,29.392763064621,30002,False
c3611099867495,0.49万(3套),3,3套,套,4938,0.49万,元,"106.518754,29.394105;106.518193,29.394341;106.517802,29.393606;106.522361,29.392929;106.522833,29.394581;106.521544,29.395337;106.520955,29.393763;106.520753,29.393173;106.519105,29.393527",黄溪口,,3611099867495,resblock,3611099867495,黄溪口,106.52185218449,29.393747607767,30002,False
c3611099872793,0.51万(3套),3,3套,套,5136,0.51万,元,"106.516437,29.391513;106.514465,29.3923;106.512821,29.39309;106.513486,29.394251;106.513993,29.394023;106.514833,29.393342;106.515098,29.393393;106.516149,29.393425;106.517438,29.393295",大江四组团,,3611099872793,resblock,3611099872793,大江四组团,106.51478679742,29.392984422288,30002,False
c3611099875493,0.55万(3套),3,3套,套,5500,0.55万,元,"106.514124,29.399797;106.513517,29.398979;106.516378,29.397516;106.51689,29.398263",腾王阁二期,,3611099875493,resblock,3611099875493,腾王阁二期,106.51513544723,29.398781455689,30002,False
c3611099875648,0.57万(3套),3,3套,套,5722,0.57万,元,"106.514038,29.399832;106.513459,29.399034;106.511635,29.399817;106.512044,29.400749",假日滨江花园樱...,,3611099875648,resblock,3611099875648,假日滨江花园樱花苑,106.51349674582,29.399643523447,30002,False
c3611059491100,0.68万(2套),2,2套,套,6821,0.68万,元,"106.519909,29.391206;106.519918,29.3916;106.5195,29.392367;106.519204,29.39243;106.519114,29.392359;106.518786,29.391655;106.51875,29.391281",浩立城市花园,,3611059491100,resblock,3611059491100,浩立城市花园,106.51936403224,29.391717505074,30002,False
c3611059514655,0.49万(2套),2,2套,套,4857,0.49万,元,"106.517825,29.390298;106.519819,29.390148;106.519999,29.3911;106.517968,29.391242",宏源花园,,3611059514655,resblock,3611059514655,宏源花园,106.5189517626,29.390564497998,30002,False
c3611099863771,0.68万(2套),2,2套,套,6814,0.68万,元,"106.515561,29.386966;106.515696,29.386643;106.516473,29.386761;106.516289,29.387206",和达阳光家园,,3611099863771,resblock,3611099863771,和达阳光家园,106.51594307277,29.386734031815,30002,False
c3611099864662,0.65万(2套),2,2套,套,6509,0.65万,元,"106.513351,29.387607;106.513315,29.386804;106.514973,29.38669;106.515112,29.38756",品行天下,,3611099864662,resblock,3611099864662,品行天下,106.51390203115,29.387541432392,30002,False
c3611099874270,0.53万(2套),2,2套,套,5323,0.53万,元,"106.510872,29.395868;106.510279,29.395824;106.509785,29.395946;106.50908,29.39634;106.508181,29.395124;106.51022,29.394267;106.509484,29.392811;106.509758,29.392717;106.510566,29.394046;106.510935,29.393885;106.511864,29.39346;106.512664,29.394774;106.513486,29.396111;106.512704,29.396434;106.511995,29.395207;106.511375,29.395281;106.510935,29.395317",大江三组团,,3611099874270,resblock,3611099874270,大江三组团,106.51088355195,29.395145154739,30002,False
c3611100520826,0.53万(2套),2,2套,套,5271,0.53万,元,"106.516405,29.391191;106.516396,29.390329;106.515768,29.390282;106.51575,29.389995;106.515709,29.389719;106.51539,29.389743;106.514501,29.389755;106.513881,29.389806;106.513692,29.390349;106.513715,29.390982;106.513306,29.390852;106.512731,29.390923;106.511658,29.391364;106.511739,29.391509;106.51173,29.392099;106.511721,29.392331;106.512394,29.392359;106.513109,29.392268;106.512821,29.391116;106.513706,29.39099;106.514384,29.392146;106.515408,29.39169",大江五组团,,3611100520826,resblock,3611100520826,大江五组团,106.512549,29.392195,30002,False
c3611100674675,0.49万(2套),2,2套,套,4925,0.49万,元,"106.523682,29.387394;106.524315,29.38719;106.524894,29.38787;106.523915,29.388413;106.52339,29.388394",东升苑,,3611100674675,resblock,3611100674675,东升苑,106.524153,29.387812,30002,False
c3611057720940,0.66万(1套),1,1套,套,6570,0.66万,元,"106.50594,29.391155;106.505689,29.389873;106.507135,29.390722;106.507081,29.390785;106.506506,29.391242",理想莲花苑,,3611057720940,resblock,3611057720940,理想莲花苑,106.50633574702,29.390603236197,30002,False
c3611060412970,0.44万(1套),1,1套,套,4441,0.44万,元,"106.517479,29.391458;106.518031,29.391438;106.518292,29.392115;106.518144,29.39215;106.51782,29.391659;106.517461,29.39158",兴源小区,,3611060412970,resblock,3611060412970,兴源小区,106.51786001441,29.391503745463,30002,False
c3611099864596,0.5万(1套),1,1套,套,4966,0.5万,元,"106.521526,29.38697;106.521175,29.386246;106.522433,29.385915;106.522577,29.386435;106.522613,29.386734",锦华苑,,3611099864596,resblock,3611099864596,锦华苑,106.52193952377,29.38622561487,30002,False
c3611099872087,0.53万(1套),1,1套,套,5323,0.53万,元,"106.514222,29.397024;106.51363,29.396198;106.514797,29.395643;106.515983,29.39516;106.51813,29.394381;106.518889,29.395887;106.51698,29.397;106.516509,29.395632;106.516239,29.39527;106.516028,29.39514;106.514802,29.395639;106.514977,29.396796",大江二组团,,3611099872087,resblock,3611099872087,大江二组团,106.51731848014,29.395704885324,30002,False
c3611099874953,(1套),1,1套,套,0,,元,"106.508469,29.396163;106.5081,29.395655;106.5078,29.395675;106.507728,29.395502;106.508123,29.39536;106.508675,29.396056",隆盛大厦,,3611099874953,resblock,3611099874953,隆盛大厦,106.50796165692,29.395558473111,30002,False
c3611100522615,0.49万(1套),1,1套,套,4941,0.49万,元,"106.509093,29.38776;106.508976,29.387752;106.50894,29.38776;106.508882,29.387764;106.508949,29.388;106.509116,29.387988",大江竹苑,,3611100522615,resblock,3611100522615,大江竹苑,106.508969,29.387831,30002,False
c3620030269786970,0.43万(1套),1,1套,套,4293,0.43万,元,"106.524063,29.384059;106.524337,29.384173;106.524957,29.384373;106.52506,29.383885;106.524018,29.383728",鱼洞民政局家属...,,3620030269786970,resblock,3620030269786970,鱼洞民政局家属楼,106.524681,29.384001,30002,False
c3611059470141,0.78万(71套),71,71套,套,7766,0.78万,元,"106.542357,29.387201;106.543615,29.387091;106.544567,29.389278;106.545483,29.389231;106.545623,29.391611;106.543188,29.391933",颜龙山水城,,3611059470141,resblock,3611059470141,颜龙山水城,106.54418414979,29.389994545736,30002,False
c3611059855813,0.94万(58套),58,58套,套,9359,0.94万,元,"106.544262,29.394628;106.546436,29.394297;106.545897,29.392512;106.544271,29.391906;106.543363,29.392433;106.543669,29.393692",风花树,,3611059855813,resblock,3611059855813,风花树,106.5449,29.393338,30002,False
c3611059928893,0.74万(56套),56,56套,套,7433,0.74万,元,"106.537318,29.387524;106.537444,29.386249;106.536833,29.383605;106.536923,29.382661;106.537641,29.382709;106.537772,29.383074;106.538724,29.382807;106.538701,29.382512;106.54021,29.382378;106.540462,29.382535;106.542115,29.387052;106.539743,29.387445;106.539348,29.387681;106.537893,29.387712;106.537659,29.387665;106.537462,29.38765",明华龙洲半岛,,3611059928893,resblock,3611059928893,明华龙洲半岛,106.539978,29.385625,30002,False
c3611063843622,0.81万(47套),47,47套,套,8139,0.81万,元,"106.536896,29.388744;106.537246,29.387713;106.537641,29.387682;106.538423,29.388287;106.53862,29.389216;106.538567,29.390168;106.538288,29.390113",巴南府邸,,3611063843622,resblock,3611063843622,巴南府邸,106.5385576169,29.387705433392,30002,False
c3611060405592,0.83万(21套),21,21套,套,8255,0.83万,元,"106.529889,29.382292;106.529911,29.381847;106.530109,29.38165;106.53165,29.382425;106.532368,29.382661;106.533603,29.382614;106.533545,29.383436;106.532889,29.384011;106.532696,29.38453;106.531753,29.384436;106.531425,29.384211;106.531344,29.382606;106.530603,29.382193;106.5301,29.382339",南城国际,,3611060405592,resblock,3611060405592,南城国际,106.532359,29.383362,30002,False
c3611060414882,0.65万(21套),21,21套,套,6483,0.65万,元,"106.541549,29.384561;106.542878,29.384396;106.544208,29.384105;106.544962,29.384144;106.545295,29.384026;106.545214,29.383318;106.54428,29.383185;106.544289,29.38191;106.544756,29.381863;106.544747,29.380879;106.540737,29.381376;106.540791,29.381918;106.541218,29.382127;106.540859,29.382646",一城龙洲,,3611060414882,resblock,3611060414882,一城龙洲,106.543022,29.383043,30002,False
c3611057767862,0.61万(17套),17,17套,套,6110,0.61万,元,"106.542456,29.387012;106.545924,29.386477;106.545421,29.384133;106.544316,29.384235;106.541711,29.384731",曦园江南华都,,3611057767862,resblock,3611057767862,曦园江南华都,106.54375152736,29.386002304423,30002,False
c3611057722977,0.88万(11套),11,11套,套,8825,0.88万,元,"106.530491,29.390361;106.529965,29.389794;106.530109,29.38953;106.530868,29.38935;106.53129,29.389649",商社汇,,3611057722977,resblock,3611057722977,商社汇,106.53026406262,29.389974340064,30002,False
c3611060411293,0.54万(7套),7,7套,套,5383,0.54万,元,"106.529251,29.389208;106.529543,29.389098;106.529709,29.388866;106.529907,29.389051;106.529646,29.389243;106.529377,29.38944;106.529202,29.389499;106.529022,29.389346;106.528784,29.389275;106.528753,29.389161;106.528829,29.389098",三鼎雅园,,3611060411293,resblock,3611060411293,三鼎雅园,106.52933204119,29.389247656062,30002,False
c3611059429586,0.83万(6套),6,6套,套,8283,0.83万,元,"106.524858,29.391934;106.524373,29.391045;106.52502,29.390628;106.52635,29.389688;106.526889,29.390506;106.526763,29.391155",东原香郡西区,,3611059429586,resblock,3611059429586,东原香郡西区,106.52533352753,29.391308564121,30002,False
c3611059491393,0.57万(6套),6,6套,套,5731,0.57万,元,"106.535458,29.382619;106.534282,29.382619;106.534003,29.385172;106.535629,29.385219",河畔名居,,3611059491393,resblock,3611059491393,河畔名居,106.53530484729,29.383980188678,30002,False
c3611059582489,0.43万(5套),5,5套,套,4315,0.43万,元,"106.525227,29.384456;106.525352,29.382859;106.527989,29.383284;106.528501,29.383854;106.528276,29.384314;106.527863,29.385258",化龙社区,,3611059582489,resblock,3611059582489,化龙社区,106.52708570687,29.384459356867,30002,False
c3611099972983,0.44万(5套),5,5套,套,4406,0.44万,元,"106.528838,29.390038;106.527252,29.38848;106.527827,29.388311;106.528739,29.388964;106.528582,29.389192;106.529197,29.389751;106.529422,29.389617;106.529857,29.390223;106.529826,29.39088;106.529018,29.390809",下河路,,3611099972983,resblock,3611099972983,下河路,106.52886176072,29.38961801206,30002,False
c3611059460117,0.88万(3套),3,3套,套,8761,0.88万,元,"106.53279,29.38671;106.53279,29.386344;106.533666,29.386183;106.533693,29.386529;106.533549,29.387064;106.533298,29.387115",都汇里,,3611059460117,resblock,3611059460117,都汇里,106.53326848831,29.386577545971,30002,False
c3611099962449,0.54万(3套),3,3套,套,5383,0.54万,元,"106.523358,29.394365;106.523241,29.3942;106.52418,29.393669;106.524373,29.393909;106.526246,29.392937;106.526107,29.392729;106.52626,29.39265;106.526323,29.392713;106.527428,29.392162;106.527369,29.392044;106.525361,29.393094;106.525483,29.393283",鱼洞滨江路,,3611099962449,resblock,3611099962449,鱼洞滨江路,106.525923,29.392935,30002,False
c3611100667949,0.47万(3套),3,3套,套,4669,0.47万,元,"106.533599,29.385191;106.53337,29.385313;106.533482,29.385518;106.533761,29.385514",江洲路,,3611100667949,resblock,3611100667949,江洲路,106.533634,29.385393,30002,False
c369641287758599,0.73万(3套),3,3套,套,7298,0.73万,元,"106.531798,29.389338;106.531371,29.388988;106.531034,29.389251;106.531483,29.38979",天和苑(巴南),,369641287758599,resblock,369641287758599,天和苑(巴南),106.531352,29.38934,30002,False
c3611100670828,0.51万(2套),2,2套,套,5084,0.51万,元,"106.533608,29.383563;106.533442,29.383606;106.533325,29.383752;106.533545,29.383748",农机水利局,,3611100670828,resblock,3611100670828,农机水利局,106.533465,29.38365,30002,False
c3615190259676111,0.92万(2套),2,2套,套,9242,0.92万,元,"106.529741,29.387461;106.529565,29.387371;106.529444,29.387316;106.529377,29.387477;106.529615,29.387682",时代大厦(巴南...,,3615190259676111,resblock,3615190259676111,时代大厦(巴南),106.529551,29.387488,30002,False
c3611059432045,0.57万(1套),1,1套,套,5748,0.57万,元,"106.52564,29.392862;106.525505,29.392638;106.525285,29.392709;106.525456,29.392937",天江丽景,,3611059432045,resblock,3611059432045,天江丽景,106.52539997629,29.392700829068,30002,False
c3611060410210,0.48万(1套),1,1套,套,4750,0.48万,元,"106.531142,29.387324;106.53076,29.386643;106.531021,29.386505;106.53156,29.386368;106.531739,29.386486;106.531596,29.386564;106.53178,29.386824;106.531308,29.387021;106.531465,29.387206;106.531479,29.387304;106.53138,29.387394",新民街社区,,3611060410210,resblock,3611060410210,新民街社区,106.53141420998,29.386777466145,30002,False
c3611099963413,0.61万(1套),1,1套,套,6078,0.61万,元,"106.531591,29.389015;106.531129,29.388457;106.530446,29.389055;106.529705,29.389786;106.529435,29.389562;106.530109,29.388984;106.529705,29.388779;106.529408,29.389043;106.529476,29.389133;106.529336,29.389173;106.529287,29.389098;106.528708,29.389019;106.529561,29.388409;106.530262,29.388771;106.530617,29.388437;106.530019,29.38811;106.531084,29.38752;106.531488,29.387477;106.531555,29.387214;106.53191,29.387001;106.532602,29.387343;106.532593,29.38787;106.532377,29.387882;106.532328,29.387638;106.532238,29.38765;106.53226,29.387709;106.532211,29.387898;106.531874,29.38828;106.53213,29.388736",新市街,,3611099963413,resblock,3611099963413,新市街,106.53144407348,29.388442697414,30002,False
c3611100037950,0.33万(1套),1,1套,套,3261,0.33万,元,"106.525528,29.388402;106.525308,29.388044;106.525725,29.388004;106.525546,29.387383;106.52529,29.387292;106.524755,29.386352;106.524652,29.385612;106.524975,29.385636;106.526287,29.385951;106.526381,29.386136;106.526475,29.386553;106.526408,29.386985;106.526754,29.388122;106.5259,29.38837",刘家岗,,3611100037950,resblock,3611100037950,刘家岗,106.52578705239,29.387352962379,30002,False
c3620042767529446,0.51万(1套),1,1套,套,5125,0.51万,元,,新建街,,3620042767529446,resblock,3620042767529446,新建街,106.53536489968,29.386765711041,30002,False
c3620026764193403,1万(483套),483,483套,套,10044,1万,元,"106.548888,29.398453;106.55086,29.398284;106.551843,29.398162;106.552912,29.398943;106.554637,29.396076;106.557548,29.395415;106.557871,29.39617;106.556092,29.398326;106.552912,29.398951;106.552333,29.39854;106.548951,29.398874;106.549786,29.406995;106.55196,29.407246;106.551924,29.408521;106.551242,29.408536;106.54993,29.408552",联发龙洲湾1号,,3620026764193403,resblock,3620026764193403,联发龙洲湾1号,106.55579857256,29.395229619855,30002,False
c3618110156648168,0.97万(426套),426,426套,套,9692,0.97万,元,"106.550011,29.395742;106.551709,29.395325;106.551879,29.394097;106.548044,29.394255;106.548448,29.396088;106.548457,29.39608;106.54949,29.395875",京汉凤凰城,,3618110156648168,resblock,3618110156648168,京汉凤凰城,106.55075658581,29.395445068982,30002,False
c3620020881403383,0.99万(358套),358,358套,套,9896,0.99万,元,"106.549634,29.400155;106.548574,29.397092;106.552032,29.396804;106.552185,29.397596;106.548825,29.398023;106.549301,29.399145;106.552297,29.398768;106.552418,29.399887",荣盛锦绣南山,,3620020881403383,resblock,3620020881403383,荣盛锦绣南山,106.5530773459,29.390505874082,30002,False
c36000000005546,1.1万(204套),204,204套,套,10864,1.1万,元,,碧桂园保利云禧...,,36000000005546,resblock,36000000005546,碧桂园保利云禧三期,106.5516973799,29.386804749198,30002,False
c36000000008681,1.1万(169套),169,169套,套,10999,1.1万,元,,中交锦悦朗宸湾,,36000000008681,resblock,36000000008681,中交锦悦朗宸湾,106.55463174324,29.401911428143,30002,False
c3620027723996772,1.2万(124套),124,124套,套,12156,1.2万,元,"106.550227,29.38265;106.549885,29.378732;106.552993,29.378889;106.553712,29.38276",碧桂园保利云禧...,,3620027723996772,resblock,3620027723996772,碧桂园保利云禧一期,106.55282760124,29.384159231013,30002,False
c36000000003505,1万(116套),116,116套,套,10426,1万,元,,中交锦悦御澜山,,36000000003505,resblock,36000000003505,中交锦悦御澜山,106.55615286662,29.401891353157,30002,False
c3620042297581203,0.99万(41套),41,41套,套,9933,0.99万,元,,万达华城四期,,3620042297581203,resblock,3620042297581203,万达华城四期,106.55042809329,29.40127741674,30002,False
c3620057803254501,1.3万(31套),31,31套,套,12749,1.3万,元,,碧桂园保利云禧...,,3620057803254501,resblock,3620057803254501,碧桂园保利云禧二期,106.55560478621,29.38605021762,30002,False
c3620025430713988,1.1万(30套),30,30套,套,10685,1.1万,元,"106.551799,29.402861;106.551493,29.40161;106.552535,29.401579;106.552688,29.402822",万达华城二期,,3620025430713988,resblock,3620025430713988,万达华城二期,106.552426,29.402516,30002,False
c3611059337733,0.9万(19套),19,19套,套,8957,0.9万,元,"106.54755,29.403037;106.549149,29.40299;106.549068,29.401684;106.547532,29.4017",城南未来,,3611059337733,resblock,3611059337733,城南未来,106.54836328413,29.402337776376,30002,False
c3620028457314809,1.1万(15套),15,15套,套,10542,1.1万,元,"106.552454,29.400021;106.549265,29.400289;106.54949,29.401469;106.549562,29.402216;106.552625,29.401862",万达华城三期,,3620028457314809,resblock,3620028457314809,万达华城三期,106.551602,29.401028,30002,False
c3611059550488,0.96万(11套),11,11套,套,9553,0.96万,元,"106.547159,29.395816;106.547815,29.395765;106.547572,29.394282;106.546741,29.394439",城南未来北苑,,3611059550488,resblock,3611059550488,城南未来北苑,106.54724360626,29.395204579808,30002,False
c3620044731052464,1万(11套),11,11套,套,10168,1万,元,,桥达巴南茂宸广...,,3620044731052464,resblock,3620044731052464,桥达巴南茂宸广场,106.553959,29.396372,30002,False
c3611100573600,1.1万(5套),5,5套,套,11405,1.1万,元,"106.54472,29.39613;106.545987,29.395902;106.54596,29.395572;106.546921,29.395415;106.546534,29.394514;106.544379,29.39486",城南未来南苑,,3611100573600,resblock,3611100573600,城南未来南苑,106.54566283669,29.395430455386,30002,False
c3620051629711490,1.3万(1套),1,1套,套,12720,1.3万,元,,联发玺悦,,3620051629711490,resblock,3620051629711490,联发玺悦,106.555886,29.39678,30002,False
c3620038977322427,0.9万(33套),33,33套,套,8981,0.9万,元,"106.619427,29.401909;106.619284,29.401307;106.620254,29.401248;106.620492,29.401838",御华兰亭,,3620038977322427,resblock,3620038977322427,御华兰亭,106.61783855731,29.401148788007,30002,False
c3620075106451886,0.85万(28套),28,28套,套,8486,0.85万,元,,翡丽锦悦二期,,3620075106451886,resblock,3620075106451886,翡丽锦悦二期,106.61592,29.396245,30002,False
c3620034601320791,0.94万(25套),25,25套,套,9371,0.94万,元,"106.617712,29.393476;106.617469,29.393024;106.61826,29.39291;106.618363,29.393401",阳光城新希望翡...,,3620034601320791,resblock,3620034601320791,阳光城新希望翡丽锦悦,106.61718187288,29.396594585111,30002,False
c3620075145244943,0.8万(15套),15,15套,套,8004,0.8万,元,,御华兰亭二期,,3620075145244943,resblock,3620075145244943,御华兰亭二期,106.615893,29.397907,30002,False
c3620074763564510,0.7万(9套),9,9套,套,7015,0.7万,元,,南城山水二期,,3620074763564510,resblock,3620074763564510,南城山水二期,106.607261,29.396419,30002,False
c36000000000514,0.65万(2套),2,2套,套,6496,0.65万,元,,南环南城名居,,36000000000514,resblock,36000000000514,南环南城名居,106.61020941231,29.393686084518,30002,False
c3620074764617721,0.67万(2套),2,2套,套,6704,0.67万,元,,南溪绿郡B区,,3620074764617721,resblock,3620074764617721,南溪绿郡B区,106.609163,29.389437,30002,False
c367148513799439,(2套),2,2套,套,0,,元,"106.611482,29.389975;106.61035,29.388496;106.607592,29.38874;106.606541,29.389786;106.606137,29.391242;106.60805,29.39291;106.608688,29.392744;106.608769,29.391611;106.609802,29.391517",南溪绿郡E区 ,,367148513799439,resblock,367148513799439,南溪绿郡E区 ,106.60587052902,29.391856181365,30002,False
c3620036510516071,0.72万(1套),1,1套,套,7203,0.72万,元,"106.607736,29.394046;106.607736,29.394385;106.608405,29.394538;106.60832,29.39361;106.607745,29.393606",南城山水,,3620036510516071,resblock,3620036510516071,南城山水,106.608024,29.394132,30002,False
c3620074763564511,0.77万(1套),1,1套,套,7697,0.77万,元,,南溪绿郡C区,,3620074763564511,resblock,3620074763564511,南溪绿郡C区,106.606945,29.390444,30002,False
c3620074849542777,0.65万(1套),1,1套,套,6498,0.65万,元,,南溪绿郡A区,,3620074849542777,resblock,3620074849542777,南溪绿郡A区,106.610352,29.389618,30002,False
c3620055828699696,0.63万(128套),128,128套,套,6252,0.63万,元,,双福时代广场荣...,,3620055828699696,resblock,3620055828699696,双福时代广场荣耀,106.276424,29.422383,30002,False
c36000000001751,0.49万(71套),71,71套,套,4875,0.49万,元,,水岸花都梅芳苑,,36000000001751,resblock,36000000001751,水岸花都梅芳苑,106.27876249327,29.415716529268,30002,False
c3620033509314221,0.49万(60套),60,60套,套,4866,0.49万,元,"106.275929,29.421943;106.27707,29.422368;106.277968,29.422069;106.276908,29.421314",双福时代广场凌...,,3620033509314221,resblock,3620033509314221,双福时代广场凌云,106.277012,29.42201,30002,False
c3620056592091463,0.4万(38套),38,38套,套,4042,0.4万,元,,福城西苑,,3620056592091463,resblock,3620056592091463,福城西苑,106.27482614459,29.41981795235,30002,False
c36000000002654,0.5万(15套),15,15套,套,4985,0.5万,元,,水岸花都兰馨苑,,36000000002654,resblock,36000000002654,水岸花都兰馨苑,106.28286464441,29.416947300661,30002,False
c3620040907040797,0.38万(15套),15,15套,套,3824,0.38万,元,,水岸花都,,3620040907040797,resblock,3620040907040797,水岸花都,106.27710248829,29.417687433729,30002,False
c3620032626101531,0.49万(7套),7,7套,套,4915,0.49万,元,"106.283075,29.421487;106.282509,29.420649;106.282168,29.420929;106.282841,29.421743",福城中央,,3620032626101531,resblock,3620032626101531,福城中央,106.282764,29.421133,30002,False
c3620038299596526,0.37万(4套),4,4套,套,3677,0.37万,元,"106.280465,29.413814;106.28025,29.412292;106.280106,29.41162;106.282487,29.411368;106.282738,29.412285;106.284373,29.411915;106.288218,29.411278;106.288514,29.412812;106.286152,29.413071;106.285999,29.412167;106.282819,29.412701;106.282945,29.413504",福城家园,,3620038299596526,resblock,3620038299596526,福城家园,106.281141,29.412263,30002,False
c3620056156917740,0.46万(1套),1,1套,套,4642,0.46万,元,,康豪精居屋,,3620056156917740,resblock,3620056156917740,康豪精居屋,106.28334157728,29.420247071422,30002,False
c3620034983005416,0.64万(144套),144,144套,套,6422,0.64万,元,"106.282217,29.422588;106.28268,29.422297;106.282451,29.421849;106.282563,29.421534;106.282195,29.421526;106.282195,29.422171",财信中梁首府,,3620034983005416,resblock,3620034983005416,财信中梁首府,106.29122381162,29.415867141677,30002,False
c3620055324295683,0.69万(68套),68,68套,套,6871,0.69万,元,,江津吾悦广场,,3620055324295683,resblock,3620055324295683,江津吾悦广场,106.29521099712,29.422933282908,30002,False
c36000000025598,0.73万(28套),28,28套,套,7291,0.73万,元,,迪鑫阳光天宸,,36000000025598,resblock,36000000025598,迪鑫阳光天宸,106.2941179652,29.417378233139,30002,False
c36000000012517,0.37万(20套),20,20套,套,3709,0.37万,元,,双溪还房A区,,36000000012517,resblock,36000000012517,双溪还房A区,106.29425867215,29.414418640317,30002,False
c3620032631375849,0.5万(18套),18,18套,套,5038,0.5万,元,"106.284189,29.420925;106.285815,29.420292;106.286331,29.421149;106.285554,29.421526;106.285276,29.421031;106.284512,29.421389",斌鑫馨福苑,,3620032631375849,resblock,3620032631375849,斌鑫馨福苑,106.28531,29.420744,30002,False
c36000000016127,0.39万(10套),10,10套,套,3929,0.39万,元,,双溪还房B区,,36000000016127,resblock,36000000016127,双溪还房B区,106.29924772871,29.41357485405,30002,False
c36000000076316,0.54万(4套),4,4套,套,5393,0.54万,元,,吾悦华府南区,,36000000076316,resblock,36000000076316,吾悦华府南区,106.29779073596,29.415825923586,30002,False
c3620028702801161,0.64万(219套),219,219套,套,6411,0.64万,元,"106.286906,29.424975;106.279513,29.427236;106.279486,29.427437;106.279688,29.427445;106.279634,29.427213;106.283672,29.425632;106.283942,29.425569;106.285199,29.428671;106.288182,29.427271;106.287535,29.426312;106.286996,29.424959;106.301549,29.430999;106.302591,29.432635;106.30065,29.433437;106.299572,29.431801;106.301549,29.430952",金科集美郡,,3620028702801161,resblock,3620028702801161,金科集美郡,106.31394833151,29.414816430854,30002,False
c3620035736338506,0.53万(111套),111,111套,套,5266,0.53万,元,"106.310967,29.421015;106.311596,29.421027;106.311574,29.420748;106.310922,29.420756",中骏云景台,,3620035736338506,resblock,3620035736338506,中骏云景台,106.31067881731,29.422683208359,30002,False
c3620052506425186,0.49万(107套),107,107套,套,4854,0.49万,元,,御墅临枫,,3620052506425186,resblock,3620052506425186,御墅临枫,106.30726964492,29.415396465603,30002,False
c36000000003347,0.53万(77套),77,77套,套,5319,0.53万,元,,蔚蓝彼岸,,36000000003347,resblock,36000000003347,蔚蓝彼岸,106.31507226806,29.410596360316,30002,False
c3620036402354610,0.47万(63套),63,63套,套,4718,0.47万,元,"106.310954,29.419615;106.311354,29.419729;106.311313,29.419324;106.310851,29.419304",津北新都汇,,3620036402354610,resblock,3620036402354610,津北新都汇,106.3106748533,29.418623372204,30002,False
c36000000001885,0.52万(59套),59,59套,套,5171,0.52万,元,,裕城万卷山,,36000000001885,resblock,36000000001885,裕城万卷山,106.31062537108,29.416644325518,30002,False
c36000000000287,0.54万(54套),54,54套,套,5357,0.54万,元,,祥瑞西城中心,,36000000000287,resblock,36000000000287,祥瑞西城中心,106.31467078454,29.418836526586,30002,False
c3620045586763990,0.64万(53套),53,53套,套,6391,0.64万,元,,奥贝学府一号,,3620045586763990,resblock,3620045586763990,奥贝学府一号,106.307116,29.414012,30002,False
c36000000002395,0.46万(45套),45,45套,套,4602,0.46万,元,,牛津大道,,36000000002395,resblock,36000000002395,牛津大道,106.31905084668,29.419880902064,30002,False
c36000000000375,0.45万(34套),34,34套,套,4498,0.45万,元,,建宇新时区,,36000000000375,resblock,36000000000375,建宇新时区,106.31319332022,29.418040286682,30002,False
c3620028499245090,0.44万(17套),17,17套,套,4446,0.44万,元,"106.324253,29.404619;106.323166,29.404257;106.321046,29.40528;106.320974,29.405461;106.323562,29.406177",海洲时代,,3620028499245090,resblock,3620028499245090,海洲时代,106.322987,29.405177,30002,False
c36000000018808,0.29万(1套),1,1套,套,2912,0.29万,元,,巴福花园,,36000000018808,resblock,36000000018808,巴福花园,106.3340722785,29.41288655695,30002,False
c36000000034895,0.39万(1套),1,1套,套,3903,0.39万,元,,黑林还房,,36000000034895,resblock,36000000034895,黑林还房,106.33492942565,29.411341276517,30002,False
c3620031685022432,1万(183套),183,183套,套,10159,1万,元,"106.446778,29.419875;106.444262,29.419481;106.443921,29.422171;106.444837,29.422958;106.446346,29.422832",联发西城首府,,3620031685022432,resblock,3620031685022432,联发西城首府,106.444181,29.421276,30002,False
c3611059259317,0.51万(1套),1,1套,套,5066,0.51万,元,"106.434615,29.404025;106.436905,29.40408;106.43686,29.40681;106.434606,29.406786",蓝沁苑,,3611059259317,resblock,3611059259317,蓝沁苑,106.43607136758,29.405040542152,30002,False
c3620031710198179,0.91万(511套),511,511套,套,9140,0.91万,元,"106.449706,29.424751;106.453003,29.424491;106.453111,29.426041;106.449733,29.426009",金地自在城,,3620031710198179,resblock,3620031710198179,金地自在城,106.44936525493,29.417252433102,30002,False
c3620027971613420,0.89万(352套),352,352套,套,8872,0.89万,元,"106.443589,29.412914;106.446661,29.410302;106.44702,29.414046;106.4442,29.414015",金科中建集美阳...,,3620027971613420,resblock,3620027971613420,金科中建集美阳光,106.44792675784,29.412052902976,30002,False
c3620034657946039,0.85万(169套),169,169套,套,8506,0.85万,元,"106.448498,29.419942;106.448408,29.419304;106.44914,29.419304;106.449136,29.419765;106.449136,29.419776;106.448947,29.419855",荣安林语春风,,3620034657946039,resblock,3620034657946039,荣安林语春风,106.45065947662,29.418589710229,30002,False
c3620052485426483,0.94万(8套),8,8套,套,9372,0.94万,元,,中航昕晖璟辰,,3620052485426483,resblock,3620052485426483,中航昕晖璟辰,106.450452,29.416304,30002,False
c3611059538162,0.58万(16套),16,16套,套,5837,0.58万,元,"106.491343,29.420795;106.490651,29.419568;106.495133,29.418443;106.495133,29.420386",竹园小区(大渡...,,3611059538162,resblock,3611059538162,竹园小区(大渡口),106.494631,29.419611,30002,False
c3620034225811833,0.88万(67套),67,67套,套,8781,0.88万,元,"106.515983,29.415635;106.515462,29.415148;106.516351,29.414196;106.516495,29.414652",中洲半岛城邦,,3620034225811833,resblock,3620034225811833,中洲半岛城邦,106.51489619693,29.415195761907,30002,False
c3620042773790926,0.96万(7套),7,7套,套,9574,0.96万,元,,绿地听江左岸,,3620042773790926,resblock,3620042773790926,绿地听江左岸,106.51059359385,29.416440300319,30002,False
c3611099999575,1.1万(107套),107,107套,套,10532,1.1万,元,"106.533877,29.419214;106.535387,29.420284;106.535872,29.421133;106.536249,29.421857;106.536123,29.42214;106.533284,29.422714;106.53041,29.423146;106.53041,29.423146",华宇龙湾,,3611099999575,resblock,3611099999575,华宇龙湾,106.53317225331,29.421215932212,30002,False
c36000000034682,0.89万(46套),46,46套,套,8946,0.89万,元,,佳兆业广场愉景...,,36000000034682,resblock,36000000034682,佳兆业广场愉景湾,106.54235508271,29.417433685183,30002,False
c3611059487118,0.83万(46套),46,46套,套,8299,0.83万,元,"106.538872,29.412437;106.539294,29.412752;106.540327,29.413074;106.540776,29.413373;106.541432,29.412618;106.541306,29.412477;106.541288,29.411942;106.541315,29.41156;106.541468,29.411407;106.541311,29.411049;106.541598,29.409995;106.54158,29.409676;106.541019,29.409893;106.540327,29.410538;106.539739,29.411324",浩立碧海湾,,3611059487118,resblock,3611059487118,浩立碧海湾,106.540525,29.411753,30002,False
c3611063506175,0.91万(25套),25,25套,套,9106,0.91万,元,"106.544603,29.415014;106.541675,29.414975;106.541863,29.415627;106.54251,29.416367;106.542519,29.419088;106.544621,29.419088",佳兆业广场,,3611063506175,resblock,3611063506175,佳兆业广场,106.54374254158,29.416887511378,30002,False
c3611059534566,0.76万(20套),20,20套,套,7605,0.76万,元,"106.541917,29.41171;106.541971,29.409878;106.542807,29.409366;106.543417,29.409587;106.543337,29.409067;106.544639,29.40902;106.54454,29.412277;106.544576,29.411718",龙洲花园,,3611059534566,resblock,3611059534566,龙洲花园,106.543314,29.410589,30002,False
c3620034587700621,1万(19套),19,19套,套,9972,1万,元,"106.531542,29.422171;106.532395,29.422612;106.532602,29.421833;106.532099,29.421589",华宇龙州府,,3620034587700621,resblock,3620034587700621,华宇龙州府,106.53568681101,29.417570182309,30002,False
c36000000001252,0.91万(18套),18,18套,套,9059,0.91万,元,,佳兆业广场二期,,36000000001252,resblock,36000000001252,佳兆业广场二期,106.54265044129,29.419496836515,30002,False
c3611059426309,0.71万(6套),6,6套,套,7105,0.71万,元,"106.544473,29.408922;106.542726,29.408902;106.542726,29.407703;106.543197,29.407345;106.544432,29.407357",帝豪水岸,,3611059426309,resblock,3611059426309,帝豪水岸,106.54362495418,29.408333572277,30002,False
c3611100000443,0.86万(6套),6,6套,套,8565,0.86万,元,"106.544473,29.414031;106.543516,29.414062;106.543619,29.415018;106.544405,29.414963",曦圆俊江南,,3611100000443,resblock,3611100000443,曦圆俊江南,106.54271301677,29.41571701638,30002,False
c3611059516823,0.86万(1套),1,1套,套,8555,0.86万,元,"106.542259,29.413228;106.54313,29.411813;106.541432,29.411254;106.541378,29.412859",黄桷佳园,,3611059516823,resblock,3611059516823,黄桷佳园,106.5422210609,29.412330339278,30002,False
c3620023396623388,1.1万(320套),320,320套,套,11289,1.1万,元,"106.550033,29.413515;106.551013,29.413204;106.553119,29.412752;106.553757,29.41237;106.552683,29.412044;106.552629,29.411914;106.55289,29.411234;106.552463,29.41066;106.551462,29.40983;106.55139,29.409606;106.54993,29.409621",旭辉城橙郡,,3620023396623388,resblock,3620023396623388,旭辉城橙郡,106.551116,29.410911,30002,False
c36000000001508,1万(256套),256,256套,套,10404,1万,元,,中交锦悦御蓝湾,,36000000001508,resblock,36000000001508,中交锦悦御蓝湾,106.55605916869,29.408953437042,30002,False
c3620034592952689,1.2万(234套),234,234套,套,11798,1.2万,元,"106.551008,29.418101;106.552603,29.417987;106.552832,29.417102;106.551992,29.416752;106.551066,29.417436;106.550635,29.417444",融信澜湾,,3620034592952689,resblock,3620034592952689,融信澜湾,106.5530335426,29.415418511578,30002,False
c3611063571811,1.2万(198套),198,198套,套,11543,1.2万,元,"106.55497,29.419945;106.554215,29.41919;106.556407,29.415006;106.56027,29.416469;106.561294,29.417885;106.561186,29.419678;106.559461,29.420748",阳光100阿尔...,,3611063571811,resblock,3611063571811,阳光100阿尔勒,106.5578011552,29.417329479049,30002,False
c3614646670537373,1.1万(84套),84,84套,套,11370,1.1万,元,"106.552775,29.41173;106.552954,29.412092;106.553844,29.412312;106.554219,29.411666;106.554291,29.411423;106.554224,29.410959;106.554008,29.410561;106.553285,29.40972;106.552526,29.408654;106.551722,29.408913;106.551471,29.409189;106.551569,29.409743;106.55245,29.410467;106.552841,29.410919;106.553043,29.411222",旭辉御府,,3614646670537373,resblock,3614646670537373,旭辉御府,106.55299273097,29.410211760695,30002,False
c3620073872274160,1.1万(68套),68,68套,套,10883,1.1万,元,,中交锦悦二期,,3620073872274160,resblock,3620073872274160,中交锦悦二期,106.55523313761,29.403900666504,30002,False
c367331507352087,1.2万(61套),61,61套,套,11890,1.2万,元,"106.55664,29.404159;106.553492,29.404151;106.552827,29.403915;106.552683,29.403404;106.552468,29.40338;106.552162,29.403459;106.552176,29.403636;106.552387,29.403864;106.551763,29.404088;106.551758,29.404312;106.553631,29.404474;106.552903,29.407219;106.554026,29.407746;106.555221,29.407714;106.556281,29.407069;106.556784,29.405952",中交锦悦,,367331507352087,resblock,367331507352087,中交锦悦,106.55552433185,29.405822853293,30002,False
c369182370869906,1.1万(46套),46,46套,套,10760,1.1万,元,"106.551628,29.406487;106.552185,29.40655;106.552391,29.406106;106.552261,29.406067;106.552261,29.405917;106.552338,29.405724;106.552378,29.405445;106.552508,29.405166;106.55271,29.404938;106.551906,29.404918;106.551812,29.405453",万达华城一期,,369182370869906,resblock,369182370869906,万达华城一期,106.55093040939,29.405321673921,30002,False
c3620041993489800,1.5万(45套),45,45套,套,15204,1.5万,元,,中交锦悦怡景园,,3620041993489800,resblock,3620041993489800,中交锦悦怡景园,106.55734265613,29.404374694387,30002,False
c3611059485566,0.85万(42套),42,42套,套,8517,0.85万,元,"106.544756,29.414884;106.547747,29.414954;106.547792,29.412684;106.544864,29.412629",御府观澜阁,,3611059485566,resblock,3611059485566,御府观澜阁,106.546292,29.413279,30002,False
c367150674391863,1万(41套),41,41套,套,10300,1万,元,"106.547568,29.400344;106.544971,29.400265;106.544783,29.403821;106.547289,29.403726",新跨越I33,,367150674391863,resblock,367150674391863,新跨越I33,106.546026,29.403048,30002,False
c3611059432853,0.87万(39套),39,39套,套,8707,0.87万,元,"106.544855,29.406703;106.547684,29.406727;106.547487,29.403832;106.544828,29.403934",典雅龙海港湾,,3611059432853,resblock,3611059432853,典雅龙海港湾,106.54619941392,29.405533611406,30002,False
c3611063845728,0.96万(36套),36,36套,套,9618,0.96万,元,"106.548077,29.417908;106.549684,29.417775;106.549532,29.415053;106.548112,29.4151",斌鑫江南时代,,3611063845728,resblock,3611063845728,斌鑫江南时代,106.548948,29.416485,30002,False
c367149125905732,0.99万(31套),31,31套,套,9883,0.99万,元,"106.548121,29.414872;106.549667,29.414888;106.549667,29.412528;106.548085,29.412465",万友四季缤纷,,367149125905732,resblock,367149125905732,万友四季缤纷,106.54860600092,29.413736958215,30002,False
c367144133112096,1万(26套),26,26套,套,10081,1万,元,"106.547824,29.415175;106.545951,29.415163;106.545951,29.415981;106.54596,29.417735;106.547922,29.41781",凯川紫依云,,367144133112096,resblock,367144133112096,凯川紫依云,106.54669300273,29.416612871413,30002,False
c3611059345073,0.98万(22套),22,22套,套,9751,0.98万,元,"106.547833,29.406168;106.548839,29.406192;106.548803,29.405319;106.549243,29.405287;106.549189,29.404068;106.547734,29.404139",典雅中央广场,,3611059345073,resblock,3611059345073,典雅中央广场,106.548327,29.40502,30002,False
c3611063284087,0.97万(21套),21,21套,套,9664,0.97万,元,"106.5499,29.409083;106.551319,29.409048;106.552495,29.408516;106.552441,29.407568;106.552194,29.407309;106.550177,29.407214;106.549885,29.407462",旭辉城,,3611063284087,resblock,3611063284087,旭辉城,106.550873,29.408119,30002,False
c3611059489602,0.87万(17套),17,17套,套,8741,0.87万,元,"106.544684,29.409815;106.547747,29.409728;106.548012,29.411785;106.546921,29.411785;106.546952,29.412526;106.546422,29.412518;106.546045,29.412455;106.545699,29.41245;106.545461,29.412229;106.544684,29.411624",御府揽岳阁,,3611059489602,resblock,3611059489602,御府揽岳阁,106.546296,29.410424,30002,False
c3611063955946,0.82万(15套),15,15套,套,8158,0.82万,元,"106.549661,29.407022;106.549571,29.403042;106.552764,29.402987;106.552746,29.403223;106.551875,29.403258;106.55187,29.404021;106.551731,29.40445;106.553222,29.404729;106.55298,29.405842;106.552414,29.405732;106.552405,29.405874;106.552944,29.406;106.553231,29.404725;106.551637,29.404434;106.551646,29.405201;106.551556,29.405807;106.551498,29.406535;106.55179,29.406535;106.551785,29.406688",万达华城(巴南...,,3611063955946,resblock,3611063955946,万达华城(巴南),106.55093040939,29.403809,30002,False
c3611059461367,0.88万(13套),13,13套,套,8795,0.88万,元,"106.548035,29.410869;106.549652,29.410877;106.549607,29.411883;106.548035,29.411891",都灵态度,,3611059461367,resblock,3611059461367,都灵态度,106.548883,29.41126,30002,False
c3611057767561,0.85万(10套),10,10套,套,8546,0.85万,元,"106.544783,29.415148;106.545897,29.41514;106.545861,29.417366;106.544792,29.417358",江尚怡景,,3611057767561,resblock,3611057767561,江尚怡景,106.54511812288,29.416233497418,30002,False
c36000000001712,0.72万(1套),1,1套,套,7171,0.72万,元,,巴桂苑,,36000000001712,resblock,36000000001712,巴桂苑,106.61686847842,29.408135300506,30002,False
c36000000071289,0.65万(392套),392,392套,套,6506,0.65万,元,,恒大金碧天下二...,,36000000071289,resblock,36000000071289,恒大金碧天下二期,106.2799314578,29.431829119083,30002,False
c36000000071285,0.71万(369套),369,369套,套,7106,0.71万,元,,恒大金碧天下一...,,36000000071285,resblock,36000000071285,恒大金碧天下一期,106.2799314578,29.431829119083,30002,False
c3620041761772699,0.66万(180套),180,180套,套,6592,0.66万,元,,恒大御景天下,,3620041761772699,resblock,3620041761772699,恒大御景天下,106.27529044846,29.437978945394,30002,False
c36000000001542,0.59万(140套),140,140套,套,5899,0.59万,元,,双福时代广场锦...,,36000000001542,resblock,36000000001542,双福时代广场锦绣,106.275255,29.42365,30002,False
c36000000063716,0.64万(113套),113,113套,套,6438,0.64万,元,,新城和昱麟云（...,,36000000063716,resblock,36000000063716,新城和昱麟云（一期）,106.28450492758,29.424198122629,30002,False
c3620043303556934,0.68万(104套),104,104套,套,6846,0.68万,元,,江津金科集美东...,,3620043303556934,resblock,3620043303556934,江津金科集美东方,106.273374,29.424695,30002,False
c3620022943486194,0.62万(78套),78,78套,套,6221,0.62万,元,"106.281763,29.424806;106.282055,29.42378;106.28272,29.424259;106.282527,29.424889",溪山美郡,,3620022943486194,resblock,3620022943486194,溪山美郡,106.28228,29.42444,30002,False
c3620055812945127,0.51万(61套),61,61套,套,5122,0.51万,元,,双福时代广场揽...,,3620055812945127,resblock,3620055812945127,双福时代广场揽山,106.27418964167,29.42317928996,30002,False
c3620055828699695,0.58万(56套),56,56套,套,5846,0.58万,元,,双福时代广场启...,,3620055828699695,resblock,3620055828699695,双福时代广场启辰,106.277176,29.42307,30002,False
c3620032901920092,0.74万(20套),20,20套,套,7385,0.74万,元,"106.277029,29.436209;106.276589,29.436315;106.276661,29.436665;106.277169,29.436563",仁能云的左岸,,3620032901920092,resblock,3620032901920092,仁能云的左岸,106.277016,29.436437,30002,False
c36000000071286,1.7万(14套),14,14套,套,16839,1.7万,元,,恒大金碧天下依...,,36000000071286,resblock,36000000071286,恒大金碧天下依云湖,106.27220245319,29.432140049574,30002,False
c3620034419858086,0.63万(269套),269,269套,套,6298,0.63万,元,"106.287284,29.432368;106.28754,29.432497;106.287948,29.43232;106.287827,29.431813;106.287149,29.432002",中骏雍景湾,,3620034419858086,resblock,3620034419858086,中骏雍景湾,106.2872115988,29.426707846727,30002,False
c36000000071290,0.68万(135套),135,135套,套,6797,0.68万,元,,恒大金碧天下三...,,36000000071290,resblock,36000000071290,恒大金碧天下三期,106.28544882069,29.43572802362,30002,False
c36000000063715,0.63万(126套),126,126套,套,6253,0.63万,元,,新城和昱麟云(...,,36000000063715,resblock,36000000063715,新城和昱麟云(二期),106.28653677055,29.423773552238,30002,False
c3620038211386488,0.65万(116套),116,116套,套,6483,0.65万,元,"106.288218,29.424;106.288312,29.424141;106.290356,29.423158;106.290032,29.422509;106.287692,29.422958",双福新鸥鹏拉菲...,,3620038211386488,resblock,3620038211386488,双福新鸥鹏拉菲公馆,106.288325,29.423888,30002,False
c36000000001564,0.39万(18套),18,18套,套,3922,0.39万,元,,双福国际农贸城...,,36000000001564,resblock,36000000001564,双福国际农贸城兴茂北座,106.30008281892,29.436380760287,30002,False
c36000000018597,0.39万(18套),18,18套,套,3855,0.39万,元,,福城北苑C区,,36000000018597,resblock,36000000018597,福城北苑C区,106.29177095562,29.433623486976,30002,False
c36000000000944,0.34万(17套),17,17套,套,3358,0.34万,元,,福城北苑B区,,36000000000944,resblock,36000000000944,福城北苑B区,106.29312593606,29.435218719927,30002,False
c3620056587898617,0.47万(10套),10,10套,套,4713,0.47万,元,,嘉峰家园,,3620056587898617,resblock,3620056587898617,嘉峰家园,106.28999887378,29.434065091347,30002,False
c36000000005131,0.41万(5套),5,5套,套,4111,0.41万,元,,国际利城,,36000000005131,resblock,36000000005131,国际利城,106.29074200966,29.430835751326,30002,False
c36000000003069,0.36万(2套),2,2套,套,3647,0.36万,元,,福城北苑A区,,36000000003069,resblock,36000000003069,福城北苑A区,106.29058705588,29.432430368848,30002,False
c36000000000964,0.47万(235套),235,235套,套,4672,0.47万,元,,李子湖畔,,36000000000964,resblock,36000000000964,李子湖畔,106.31373455121,29.423235999222,30002,False
c3620041833082384,0.48万(21套),21,21套,套,4766,0.48万,元,,中南紫云集,,3620041833082384,resblock,3620041833082384,中南紫云集,106.310074,29.429029,30002,False
c3620054625837893,0.62万(19套),19,19套,套,6197,0.62万,元,,芸峰时代峰汇,,3620054625837893,resblock,3620054625837893,芸峰时代峰汇,106.306758,29.432568,30002,False
c3620034664238386,0.91万(30套),30,30套,套,9095,0.91万,元,"106.434628,29.438753;106.435432,29.43867;106.434992,29.437566;106.434197,29.437829",中昂别院,,3620034664238386,resblock,3620034664238386,中昂别院,106.434514,29.438181,30002,False
